route_id,route_short_name,stop_id,stop_name,stop_lat,stop_lon,zone_id,stop_url,location_type,parent_station,wheelchair_boarding,stop_code
101,101,,,,2549:1,,1,-79.084237,43.831147,1,2549,Pickering Station,0,
101,101,,,,935991,,1,-79.086556,43.82672,2,93599,Liverpool Southbound @ East Shore Community Centre,0,
101,101,,,,1986:1,,1,-79.085622,43.824687,2,1986,Liverpool Southbound @ Patmore,0,
101,101,,,,1842:1,,1,-79.0848981,43.8230252,2,1842,Liverpool Southbound @ Haller,0,
101,101,,,,1832:1,,1,-79.08241599999998,43.82171000000001,2,1832,Southbound @ 725 Krosno,0,
101,101,,,,93234:1,,1,-79.08085199999998,43.821475,2,93234,Krosno Eastbound @ Annland,0,
101,101,,,,93235:1,,1,-79.078981,43.821887,2,93235,Krosno Eastbound @ Modlin,0,
101,101,,,,1701:1,,1,-79.075833,43.824092,2,1701,Alyssum Eastbound @ Lublin,0,
101,101,,,,1703:1,,1,-79.072432,43.819293,2,1703,Sandy Beach @ Parkham,0,
101,101,,,,1706:1,,2,-79.06519369171588,43.8143165023665,2,1706,Montgomery Park Eastbound @ OPG Pickering,0,
101,101,,,,1707:1,,2,-79.06028999999998,43.815436,2,1707,Montgomery Park Eastbound @ Brock Road,0,
101,101,,,,1709:1,,2,-79.05741,43.819181,2,1709,McKay Northbound @ Montgomery Park,0,
101,101,,,,1711:1,,2,-79.05191499999998,43.821982,2,1711,Squires Beach Northbound @ McKay,0,
101,101,,,,1712:1,,2,-79.053029,43.824595,2,1712,Northbound @ 1111 Squires Beach,0,
101,101,,,,1713:1,,2,-79.054705,43.827022,2,1713,Clements Westbound @ Squires Beach,0,
101,101,,,,1714:1,,2,-79.05666669999998,43.8266135,2,1714,Westbound @ 1850 Clements,0,
101,101,,,,1715:1,,2,-79.060627,43.825697,2,1715,Westbound @ 1768 Clements,0,
101,101,,,,1716:1,,1,-79.063235,43.825146,1,1716,Clements Westbound @ Brock Road,0,
101,101,,,,1719:1,,2,-79.065535,43.82876000000001,2,1719,Brock Road Northbound @ Quigley,0,
101,101,,,,1720:1,,2,-79.066323,43.830614,2,1720,Brock Road Northbound @ Orangebrook,0,
101,101,,,,1766:1,,1,-79.068809,43.832884,1,1766,Bayly Westbound @ Brock Road,0,
101,101,,,,1767:1,,1,-79.0705011,43.8324969,2,1767,Bayly Westbound @ Salk,0,
101,101,,,,1768:1,,1,-79.074425,43.83159,2,1768,Bayly Westbound @ Alliance,0,
101,101,,,,1769:1,,1,-79.077296,43.830956,2,1769,Bayly Westbound @ Sandy Beach,0,
101,101,,,,1770:1,,1,-79.08112199999998,43.830141,2,1770,Bayly Westbound @ Krosno,0,
101,101,,,,1771:1,,1,-79.08286699999998,43.82978700000001,2,1771,Westbound @ 1400 Bayly,0,
101,101,,,,1695:1,,2,-79.08099799999998,43.829995,2,1695,Bayly Eastbound @ Krosno,0,
101,101,,,,1760:1,,1,-79.077511,43.83072700000001,2,1760,Bayly Eastbound @ Sandy Beach,0,
101,101,,,,1761:1,,1,-79.07395099999998,43.83155,2,1761,Bayly Eastbound @ Alliance,0,
101,101,,,,1762:1,,1,-79.070556,43.832321,2,1762,Bayly Eastbound @ Salk,0,
101,101,,,,1763:1,,1,-79.06841759,43.83279628,1,1763,Bayly Eastbound @ Brock Road,0,
101,101,,,,93495:1,,2,-79.066528,43.83056,2,93495,Brock Road Southbound @ Orangebrook,0,
101,101,,,,93496:1,,2,-79.065713,43.828737,2,93496,Brock Road Southbound @ Quigley,0,
101,101,,,,93497:1,,1,-79.062901,43.825056,1,93497,Clements Eastbound @ Brock Road,0,
101,101,,,,93498:1,,2,-79.06062799999998,43.82558800000001,2,93498,Eastbound @ 1845 Clements,0,
101,101,,,,93499:1,,2,-79.056838,43.826442,2,93499,Eastbound @ 1885 Clements,0,
101,101,,,,93500:1,,2,-79.054408,43.82698100000001,2,93500,Clements Eastbound @ Squires Beach,0,
101,101,,,,93501:1,,2,-79.053242,43.824718,2,93501,Squires Beach Southbound @ Clements,0,
101,101,,,,93502:1,,2,-79.051934,43.821685,2,93502,Squires Beach Southbound @ McKay,0,
101,101,,,,93504:1,,2,-79.057412,43.81876900000001,2,93504,Southbound @ 770 McKay,0,
101,101,,,,93506:1,,2,-79.059768,43.815712,2,93506,Montgomery Park Westbound @ Brock Road,0,
101,101,,,,93519:1,,2,-79.0652288,43.8144291,2,93519,Montgomery Park Westbound @ OPG Pickering,0,
101,101,,,,93509:1,,1,-79.072332,43.819466,2,93509,Sandy Beach Northbound @ Parkham,0,
101,101,,,,93511:1,,2,-79.0759742,43.8241576,2,93511,Alyssum Westbound @ Krosno,0,
101,101,,,,93512:1,,1,-79.0792351,43.8219172,2,93512,Krosno Westbound @ Modlin,0,
101,101,,,,2002:1,,1,-79.084806,43.823093,2,2002,Liverpool Northbound @ Haller,0,
101,101,,,,2003:1,,1,-79.085611,43.824917,2,2003,Liverpool Northbound @ Patmore,0,
101,101,,,,2298:1,,2,-79.086894,43.827964,2,2298,Liverpool Northbound @ Bayly,0,
103,103,,,,93112:1,,1,-79.0851,43.832968,1,93112,Pickering Parkway Terminal Platform B12,0,
103,103,,,,93450:1,,1,-79.089201,43.833656,2,93450,Pickering Parkway Westbound @ Liverpool,0,
103,103,,,,17301,,1,-79.090151,43.835391,1,1730,Liverpool Northbound @ Kingston,0,
103,103,,,,1731:1,,1,-79.09107,43.837643,1,1731,Northbound @ 1851 Liverpool,0,
103,103,,,,1920:1,,1,-79.093254,43.838509,2,1920,Glenanna Westbound @ Glendale,0,
103,103,,,,1921:1,,1,-79.095309,43.83803000000001,2,1921,Glenanna Westbound @ Bronte,0,
103,103,,,,1922:1,,1,-79.09910499999998,43.83683700000001,2,1922,Glenanna Westbound @ Listowell,0,
103,103,,,,1923:1,,1,-79.1013673,43.8364337,2,1923,Glenanna Westbound @ Dixie,0,
103,103,,,,1924:1,,1,-79.10453099999998,43.835718,2,1924,Glenanna Westbound @ Echo Point,0,
103,103,,,,1925:1,,1,-79.10620299999998,43.836339,2,1925,Glenanna Westbound @ Heathside,0,
103,103,,,,1926:1,,1,-79.109861,43.83837,2,1926,Glenanna Westbound @ Huntsmill,0,
103,103,,,,1927:1,,1,-79.112257,43.837897,2,1927,Glenanna Westbound @ Fairport,0,
103,103,,,,1982:1,,2,-79.111872,43.835113,2,1982,Fairport Southbound @ Voyager,0,
103,103,,,,1983:1,,1,-79.111001,43.83288182,2,1983,Fairport Southbound @ Strouds,0,
103,103,,,,2727:1,,1,-79.115049,43.831796,2,2727,Strouds Westbound @ Spruce Hill,0,
103,103,,,,1584:1,,1,-79.116853,43.830842,2,1584,Strouds Lane Westbound @ Cricket Lane,0,
103,103,,,,941001,,2,-79.12018,43.829,1,94100,Whites Southbound @ Strouds (South side stop),0,
103,103,,,,1757:1,,1,-79.118976,43.826304,2,1757,Whites Southbound @ Bayfield,0,
103,103,,,,1759:1,,1,-79.116696,43.821446,2,1759,Whites Southbound @ Sheppard,0,
103,103,,,,93216:1,,1,-79.115736,43.819415,2,93216,Whites Southbound @ Kingston,0,
103,103,,,,1615:1,,1,-79.118076,43.817215,1,1615,Kingston Westbound @ Steeple Hill,0,
103,103,,,,1616:1,,1,-79.123324,43.81332,2,1616,Kingston Westbound @ Rosebank,0,
103,103,,,,1617:1,,1,-79.129028,43.809718,2,1617,Kingston Westbound @ Rougemount,0,
103,103,,,,93060:1,,1,-79.131154,43.808712,1,93060,Kingston Westbound @ Altona,0,
103,103,,,,1508:1,,1,-79.1325431,43.808908,2,1508,Altona Northbound @ Kingston,0,
103,103,,,,1509:1,,1,-79.133048,43.81012900000001,2,1509,Altona Northbound @ Brookridge,0,
103,103,,,,1511:1,,1,-79.1352275,43.8153103,2,1511,Altona Northbound @ Rougemount,0,
103,103,,,,1512:1,,1,-79.136396,43.817616,2,1512,Altona Northbound @ Sheppard,0,
103,103,,,,1513:1,,1,-79.137773,43.8202247,2,1513,Altona Northbound @ Granby,0,
103,103,,,,93421:1,,1,-79.138737,43.822599,2,93421,Altona Northbound @ Strouds,0,
103,103,,,,942091,,2,-79.141168,43.827958,2,94209,Altona Northbound @ Pine Grove,0,
103,103,,,,93321:1,,2,-79.141957,43.829695,2,93321,Altona Northbound @ Sparrow (South stop),0,
103,103,,,,93208:1,,2,-79.14252,43.830949,2,93208,Altona Northbound @ Sparrow (North stop),0,
103,103,,,,3515:1,,2,-79.143338,43.832899,2,3515,Altona Northbound @ Shadow,0,
103,103,,,,942081,,2,-79.15152,43.83283500000001,2,94208,Woodview Southbound @ Finch,0,
103,103,,,,1520:1,,1,-79.148501,43.824613,2,1520,Pine Grove Westbound @ Rockwood,0,
103,103,,,,1521:1,,1,-79.149972,43.82257,2,1521,Pine Grove Southbound @ Valley Ridge,0,
103,103,,,,1522:1,,1,-79.15148,43.82160600000001,2,1522,Valley Ridge Southbound @ Copley,0,
103,103,,,,1523:1,,1,-79.15088799999998,43.82025500000001,2,1523,Valley Ridge Southbound @ Thicket,0,
103,103,,,,1524:1,,1,-79.150199,43.818731,2,1524,Valley Ridge Southbound @ White Pine,0,
103,103,,,,2725:1,,1,-79.148704,43.816874,2,2725,Hogarth Eastbound @ Pine Grove,0,
103,103,,,,1525:1,,1,-79.145893,43.81810200000001,2,1525,Hogarth Eastbound @ Rockwood,0,
103,103,,,,3002:1,,2,-79.14290114874986,43.82055109001007,2,3002,Waterford Eastbound @ Senator,0,
103,103,,,,3004:1,,1,-79.140253,43.820443,2,3004,Waterford Eastbound @ Forestview,0,
103,103,,,,93099:1,,1,-79.136556,43.81744,2,93099,Altona Southbound @ Twyn Rivers,0,
103,103,,,,1541:1,,1,-79.1358222,43.816015,2,1541,Altona Southbound @ Littleford,0,
103,103,,,,1543:1,,1,-79.1336181,43.8108077,2,1543,Altona Southbound @ Valley Gate,0,
103,103,,,,1544:1,,1,-79.132761,43.80878135,2,1544,Altona Southbound @ Kingston,0,
103,103,,,,1776:1,,1,-79.129988,43.80911600000001,2,1776,Kingston Eastbound @ Rougemount,0,
103,103,,,,1777:1,,1,-79.123765,43.812717,2,1777,Kingston Eastbound @ Rosebank,0,
103,103,,,,1778:1,,1,-79.11821999999998,43.816824,1,1778,Kingston Eastbound @ Steeple Hill,0,
103,103,,,,1743:1,,2,-79.116675,43.821974,2,1743,Whites Northbound @ Sheppard,0,
103,103,,,,1745:1,,2,-79.11869299999998,43.826169,2,1745,Whites Northbound @ Briar Wood,0,
103,103,,,,1746:1,,1,-79.12002099999998,43.82930600000001,1,1746,Whites Northbound @ Strouds,0,
103,103,,,,1581:1,,1,-79.1178386,43.8301782,2,1581,Strouds Lane Eastbound @ Shadybrook,0,
103,103,,,,1582:1,,1,-79.11490499999998,43.83172131,2,1582,Strouds Lane Eastbound @ Spruce Hill,0,
103,103,,,,1583:1,,1,-79.110984,43.832659,2,1583,Strouds Lane Eastbound @ Fairport,0,
103,103,,,,1984:1,,1,-79.111275,43.833996,2,1984,Fairport Northbound @ Bonita,0,
103,103,,,,1928:1,,1,-79.111643,43.837903,2,1928,Glenanna Eastbound @ Eagleview,0,
103,103,,,,1929:1,,1,-79.10930399999998,43.838224,2,1929,Glenanna Eastbound @ Brookshire,0,
103,103,,,,1930:1,,1,-79.106323,43.836255,2,1930,Glenanna Southbound @ Heathside,0,
103,103,,,,1931:1,,1,-79.103337,43.835856,2,1931,Glenanna Eastbound @ Rawlings,0,
103,103,,,,1932:1,,1,-79.101806,43.836196,2,1932,Glenanna Eastbound @ Dixie,0,
103,103,,,,1933:1,,1,-79.099024,43.836731,2,1933,Glenanna Eastbound @ Listowell,0,
103,103,,,,1934:1,,1,-79.096622,43.83762,2,1934,Glenanna Eastbound @ Bowler,0,
103,103,,,,1935:1,,1,-79.09366799999998,43.838287,2,1935,Glenanna Eastbound @ Glendale,0,
103,103,,,,93192,,1,-79.08969999999998,43.839231,2,93192,Glenanna Eastbound @ Fieldlight,0,
103,103,,,,1936:1,,1,-79.0881538,43.8390289,1,1936,Glenanna Southbound @ Kingston,0,
103,103,,,,1915:1,,1,-79.084563,43.83744,2,1915,Glenanna Southbound @ The Esplanade (South side stop),0,
103,103,,,,1545:1,,1,-79.13779599999998,43.822773,2,1545,Strouds Lane Eastbound @ Tilson,0,
103,103,,,,93101:1,,1,-79.136049,43.82290900000001,2,93101,Strouds Lane Eastbound @ Calvington,0,
103,103,,,,1546:1,,1,-79.134051,43.823943,2,1546,Strouds Lane Eastbound @ Treetop Way,0,
103,103,,,,1547:1,,1,-79.132569,43.825601,2,1547,Strouds Lane Eastbound @ Autumn,0,
103,103,,,,1548:1,,1,-79.130377,43.826216,2,1548,Strouds Lane Eastbound @ Rosebank,0,
103,103,,,,1574:1,,1,-79.126176,43.827652,2,1574,Strouds Lane Northbound @ Fernam,0,
103,103,,,,1575:1,,1,-79.124103,43.828696,2,1575,Strouds Lane Eastbound @ Foxwood Trail,0,
103,103,,,,941901,,2,-79.11896299999998,43.82983,2,94190,Strouds @ Whites e fs,0,
103,103,,,,1586:1,,1,-79.121337,43.829426,2,1586,Strouds Lane Westbound @ Whites (West side stop),0,
103,103,,,,93414:1,,1,-79.125989,43.828088,2,93414,Strouds Westbound @ Fernam,0,
103,103,,,,93402:1,,1,-79.13275,43.82569,2,93402,Strouds Westbound @ Autumn,0,
103,103,,,,93403:1,,1,-79.135777,43.823157,2,93403,Strouds Westbound @ Calvington,0,
110,110,,,,93542:1,,1,-79.09007,43.835851,1,93542,Kingston Eastbound @ Liverpool,0,
110,110,,,,1786:1,,1,-79.08637299999998,43.838707,1,1786,Kingston Eastbound @ Glenanna,0,
110,110,,,,939431,,2,-79.08308599999998,43.843753,2,93943,Valley Farm Northbound @ Kingston,0,
110,110,,,,939421,,2,-79.084113,43.846188,2,93942,Northbound @ 1955 Valley Farm Road,0,
110,110,,,,1792:1,,1,-79.085486,43.847733,2,1792,Finch Westbound @ Valley Farm,0,
110,110,,,,1866:1,,1,-79.089437,43.846859,2,1866,Finch Westbound @ Rosefield,0,
110,110,,,,1868:1,,1,-79.095872,43.845458,2,1868,Finch Westbound @ Glendale,0,
110,110,,,,1869:1,,2,-79.099164,43.84467200000001,2,1869,Finch Westbound @ Maple Ridge,0,
110,110,,,,1870:1,,1,-79.10432,43.84351,2,1870,Finch Westbound @ Dixie,0,
110,110,,,,1871:1,,2,-79.10741299999998,43.84276,2,1871,Finch Westbound @ Lynn Heights,0,
110,110,,,,1872:1,,2,-79.10974521999998,43.84227253,2,1872,Finch Westbound @ Duncannon,0,
110,110,,,,1873:1,,2,-79.114271,43.841299,2,1873,Finch Westbound @ Fairport,0,
110,110,,,,93420:1,,1,-79.124213,43.839284,2,93420,Finch Westbound @ Whites,0,
110,110,,,,1751:1,,1,-79.126966,43.84406700000001,1,1751,Whites Southbound @ Sunbird Trail,0,
110,110,,,,1752:1,,1,-79.1258657,43.8417042,2,1752,Whites Southbound @ Amaretto,0,
110,110,,,,939441,,2,-79.122716,43.839422,2,93944,Finch Eastbound @ Whites,0,
110,110,,,,1887:1,,2,-79.114864,43.841082,2,1887,Finch Eastbound @ Fairport,0,
110,110,,,,1888:1,,1,-79.112022,43.84167,2,1888,Finch Eastbound @ Huntsmill,0,
110,110,,,,93313:1,,2,-79.107737,43.842627,2,93313,Finch Eastbound @ Lynn Heights,0,
110,110,,,,1890:1,,1,-79.105023,43.843166,2,1890,Finch Eastbound @ Dixie,0,
110,110,,,,1891:1,,2,-79.099123,43.84459300000001,2,1891,Finch Eastbound @ Bowler,0,
110,110,,,,1892:1,,1,-79.09511,43.845489,2,1892,Finch Eastbound @ Liverpool,0,
110,110,,,,1894:1,,1,-79.0900957,43.84660860000001,2,1894,Finch Eastbound @ Rosefield,0,
110,110,,,,1895:1,,1,-79.08531,43.847673,2,1895,Finch Eastbound @ Valley Farm,0,
110,110,,,,1863:1,,1,-79.084151,43.845921,2,1863,Southbound @ 1972 Valley Farm,0,
110,110,,,,1607:1,,1,-79.083084,43.84172800000001,2,1607,Kingston Westbound @ Valley Farm,0,
112,112,,,,935801,,2,-79.117902,43.874871,2,93580,Burkholder Southbound @ Belcourt,0,
112,112,,,,935821,,2,-79.11385,43.871065,2,93582,Burkholder Southbound @ Hibiscus,0,
112,112,,,,3572:1,,2,-79.092628,43.878735,2,3572,Zents Westbound @ Tillings,0,
112,112,,,,3573:1,,2,-79.09144999999998,43.874998,2,3573,Tillings Southbound @ Scenic Lane,0,
112,112,,,,3368:1,,1,-79.085714,43.874489,1,3368,Brock Road Southbound @ Dersan,0,
112,112,,,,940831,,1,-79.083181,43.867969,2,94083,Brock Road Southbound @ Rossland,0,
112,112,,,,93441:1,,2,-79.081998,43.864641,2,93441,Brock Road Southbound @ Clearside,0,
112,112,,,,93458:1,,1,-79.07955,43.85912,2,93458,Brock Road Southbound @ Dellbrook,0,
112,112,,,,1849:1,,1,-79.08041799999998,43.858563,2,1849,Dellbrook Westbound @ Melman,0,
112,112,,,,1850:1,,1,-79.081826,43.85838300000001,2,1850,Dellbrook Westbound @ Denby,0,
112,112,,,,1851:1,,1,-79.083173,43.859736,2,1851,Dellbrook Northbound @ Melman,0,
112,112,,,,1852:1,,1,-79.0856358,43.8607027,2,1852,Dellbrook Westbound @ Blue Ridge (East stop),0,
112,112,,,,1853:1,,1,-79.087913,43.861105,2,1853,Dellbrook Westbound @ Blue Ridge (West stop),0,
112,112,,,,1854:1,,1,-79.089584,43.860264,2,1854,Dellbrook Westbound @ Major Oaks,0,
112,112,,,,1855:1,,1,-79.088725,43.85834100000001,2,1855,Major Oaks Southbound @ Pepperwood,0,
112,112,,,,940861,,2,-79.087567,43.857079,2,94086,Greenmount Westbound @ Major Oaks,0,
112,112,,,,940951,,1,-79.094491,43.844825,2,94095,Liverpool Southbound @ Finch,0,
112,112,,,,1732:1,,1,-79.091944,43.83937800000001,2,1732,Liverpool Northbound @ Glenanna,0,
112,112,,,,1733:1,,1,-79.092623,43.840787,2,1733,Northbound @ 1917 Liverpool,0,
112,112,,,,17341,,1,-79.093507,43.842877,2,1734,Liverpool Northbound @ Anton Square,0,
112,112,,,,940791,,1,-79.094419,43.84532500000001,2,94079,Liverpool Northbound @ Finch,0,
112,112,,,,940801,,1,-79.085389,43.848572,2,94080,Valley Farm Northbound @ Bloomfield,0,
112,112,,,,940811,,2,-79.087286,43.85717000000001,2,94081,Greenmount Eastbound @ Major Oaks,0,
112,112,,,,93387:1,,1,-79.08868099999998,43.858568,2,93387,Major Oaks Northbound @ Pepperwood,0,
112,112,,,,93388:1,,1,-79.089555,43.859848,2,93388,Major Oaks Northbound @ Dellbrook,0,
112,112,,,,93389:1,,1,-79.084541,43.86040400000001,2,93389,Dellbrook Eastbound @ Chapman,0,
112,112,,,,93390:1,,1,-79.082123,43.85831300000001,2,93390,Dellbrook Southbound @ Denby,0,
112,112,,,,93435:1,,1,-79.08071,43.858381,2,93435,Dellbrook Eastbound @ Melman,0,
112,112,,,,93457:1,,1,-79.07961,43.85994,2,93457,Brock Road Northbound @ Dellbrook,0,
112,112,,,,93442:1,,2,-79.081702,43.864696,2,93442,Brock Road Northbound @ Concession 3,0,
112,112,,,,940821,,1,-79.08292899999998,43.868608,2,94082,Brock Road Northbound @ Rossland,0,
112,112,,,,940841,,1,-79.085571,43.874896,2,94084,Brock Road Northbound @ William Jackson,0,
112,112,,,,940851,,1,-79.088856,43.879619,2,94085,Zents Westbound @ Brock Road,0,
120,120,,,,1772:1,,1,-79.092178,43.82763700000001,2,1772,Bayly Westbound @ St Martins,0,
120,120,,,,1773:1,,2,-79.094832,43.826366,2,1773,Bayly Westbound @ Begley,0,
120,120,,,,1774:1,,2,-79.10225,43.822905,2,1774,Westbound @ 950 Bayly,0,
120,120,,,,1645:1,,1,-79.105278,43.82025,2,1645,West Shore Southbound @ Vistula,0,
120,120,,,,1662:1,,1,-79.1047516,43.8189771,2,1662,West Shore Southbound @ Cecylia,0,
120,120,,,,1663:1,,1,-79.104211,43.817692,2,1663,West Shore Southbound @ Samford,0,
120,120,,,,1664:1,,2,-79.10339399999998,43.815805,2,1664,West Shore Southbound @ Breezy,0,
120,120,,,,1685:1,,1,-79.103099,43.813826,2,1685,Oklahoma Westbound @ West Shore,0,
120,120,,,,1686:1,,1,-79.105305,43.813337,2,1686,Westbound @ 838 Oklahoma,0,
120,120,,,,1687:1,,1,-79.10671499999998,43.813024,2,1687,Oklahoma Westbound @ Hillcrest,0,
120,120,,,,93221:1,,1,-79.1093492,43.812462,2,93221,Oklahoma Westbound @ Eyer,0,
120,120,,,,93219:1,,1,-79.1119982,43.81194,1,93219,Oklahoma Westbound @ Whites,0,
120,120,,,,93217:1,,1,-79.115326,43.81854417000001,2,93217,Whites Northbound @ Kingston,0,
120,120,,,,1747:1,,1,-79.121756,43.833399,2,1747,Whites Northbound @ New,0,
120,120,,,,1748:1,,1,-79.123093,43.836551,2,1748,Northbound @ 1953 Whites,0,
120,120,,,,1749:1,,2,-79.12405,43.838667,2,1749,Whites Northbound @ Finch,0,
120,120,,,,1753:1,,1,-79.124218,43.83854,2,1753,Whites Southbound @ Finch,0,
120,120,,,,1754:1,,1,-79.12335299999998,43.83660900000001,2,1754,Southbound @ 1956 Whites,0,
120,120,,,,1755:1,,1,-79.122213,43.83396548000001,2,1755,Whites Southbound @ Highview,0,
120,120,,,,93214:1,,1,-79.121269,43.83149310000001,2,93214,Southbound @ 1852 Whites,0,
120,120,,,,1756:1,,1,-79.120489,43.829869,1,1756,Whites Southbound @ Strouds,0,
120,120,,,,93218:1,,1,-79.1114637,43.8118895,1,93218,Oklahoma Eastbound @ Whites,0,
120,120,,,,93220:1,,1,-79.1093549,43.8123605,2,93220,Oklahoma Eastbound @ Eyer,0,
120,120,,,,93222:1,,1,-79.10702,43.812872,2,93222,Oklahoma Eastbound @ Hillcrest,0,
120,120,,,,93223:1,,1,-79.10486,43.81333974000001,2,93223,Oklahoma Eastbound @ Victory,0,
120,120,,,,93224:1,,1,-79.102832,43.813811,2,93224,Oklahoma Eastbound @ West Shore,0,
120,120,,,,1673:1,,1,-79.103191,43.815597,2,1673,West Shore Northbound @ Breezy,0,
120,120,,,,1674:1,,1,-79.104031,43.817582,2,1674,West Shore Northbound @ Samford,0,
120,120,,,,1675:1,,1,-79.10448599999998,43.818659,2,1675,West Shore Northbound @ Cecylia,0,
120,120,,,,1689:1,,1,-79.105446,43.821218,2,1689,Bayly Eastbound @ West Shore,0,
120,120,,,,1690:1,,1,-79.1021915,43.8227518,2,1690,Eastbound @ 957 Bayly,0,
120,120,,,,1691:1,,1,-79.100129,43.82372800000001,2,1691,Eastbound @ 1001 Bayly,0,
120,120,,,,1692:1,,1,-79.094717,43.82626900000001,2,1692,Bayly Eastbound @ Begley,0,
120,120,,,,1693:1,,1,-79.092836,43.827085,2,1693,Bayly Eastbound @ St Martins,0,
120,120,,,,1694:1,,1,-79.08666599999998,43.828787,2,1694,Bayly Eastbound @ Liverpool,0,
211,211,,,,2569:1,,1,-79.041346,43.847679,1,2569,Ajax Station,0,
211,211,,,,2282:1,,1,-79.041066,43.853799,2,2282,Westney Northbound @ Ritchie,0,
211,211,,,,2283:1,,1,-79.04155679,43.85724787,2,2283,Westney Northbound @ Kingston,0,
211,211,,,,3014:1,,2,-79.046606,43.86326600000001,2,3014,Ravenscroft Northbound @ Daniels,0,
211,211,,,,2182:1,,1,-79.049211,43.864849,2,2182,Ravenscroft Northbound @ Brennan,0,
211,211,,,,2183:1,,1,-79.050094,43.866904,2,2183,Ravenscroft Northbound @ Matthews,0,
211,211,,,,2184:1,,1,-79.051332,43.869752,2,2184,Ravenscroft Northbound @ Delaney,0,
211,211,,,,2185:1,,1,-79.052373,43.872168,2,2185,Ravenscroft Northbound @ Hyde,0,
211,211,,,,93016:1,,1,-79.05380546,43.87387648,2,93016,Rossland Westbound @ Ravenscroft,0,
211,211,,,,3296:1,,2,-79.058372,43.87213100000001,2,3296,Rossland Westbound @ Harkins,0,
211,211,,,,2166:1,,1,-79.060263,43.87172121,2,2166,Westbound @ 570 Rossland,0,
211,211,,,,2204:1,,1,-79.061829,43.868838,2,2204,Church Southbound @ Strickland,0,
211,211,,,,2205:1,,1,-79.061098,43.86716,2,2205,Southbound @ 570 Church,0,
211,211,,,,2206:1,,1,-79.059791,43.86411300000001,2,2206,Church Southbound @ Delaney,0,
211,211,,,,2207:1,,1,-79.05909,43.86250900000001,2,2207,Southbound @ 370 Church,0,
211,211,,,,2208:1,,1,-79.057714,43.85935,2,2208,Church Southbound @ Meekings,0,
211,211,,,,2720:1,,1,-79.056518,43.85655100000001,2,2720,Church Southbound @ Sherwood,0,
211,211,,,,2209:1,,1,-79.05582,43.854942,2,2209,Church Southbound @ Kingston,0,
211,211,,,,1601:1,,1,-79.060678,43.853329,2,1601,Kingston Westbound @ Elizabeth,0,
211,211,,,,941581,,2,-79.06532,43.85169,2,94158,Notion Southbound @ Kingston Road,0,
211,211,,,,941571,,2,-79.06334,43.84735100000001,2,94157,Notion Southbound @ 1920 Norton Rd,0,
211,211,,,,1947:1,,1,-79.065168,43.843901,2,1947,Pickering Parkway Westbound @ Beechlawn,0,
211,211,,,,90016:1,,1,-79.067939,43.84327300000001,2,90016,Westbound @ 1766 Pickering Parkway,0,
211,211,,,,1949:1,,1,-79.0698917,43.8436022,2,1949,Westbound @ 1738 Pickering Parkway,0,
211,211,,,,93193:1,,1,-79.073586,43.843305,2,93193,Pickering Parkway Westbound @ Denmar,0,
211,211,,,,93194:1,,1,-79.0739061,43.8422129,2,93194,Pickering Parkway Southbound @ Geta,0,
211,211,,,,93195:1,,1,-79.073091,43.83966433,2,93195,Pickering Parkway Southbound @ Portland,0,
211,211,,,,93196:1,,1,-79.0771218,43.8374808,2,93196,Westbound @ 1538 Pickering Parkway,0,
211,211,,,,93197:1,,1,-79.079469,43.836377,2,93197,Pickering Parkway Westbound @ Valley Farm,0,
211,211,,,,2186:1,,1,-79.052885,43.873816,2,2186,Ravenscroft Northbound @ Rossland,0,
211,211,,,,93104:1,,1,-79.053306,43.874876,2,93104,Ravenscroft Northbound @ Dent,0,
211,211,,,,93080:1,,1,-79.054156,43.87696974,2,93080,Ravenscroft Northbound @ Telford,0,
211,211,,,,93078:1,,1,-79.0551756,43.8791627,2,93078,Ravenscroft Northbound @ Selby,0,
211,211,,,,93075:1,,1,-79.055768,43.88056000000001,2,93075,Ravenscroft Northbound @ Williamson,0,
211,211,,,,941721,,2,-79.05338,43.8814,2,94172,Williamson Eastbound @ Searell Ave,0,
211,211,,,,941731,,2,-79.04863,43.88371,2,94173,Williamson Eastbound @ Tozer Cres. (East Stop),0,
211,211,,,,2248:1,,2,-79.04553799999998,43.881817,2,2248,Southbound @ 1328 Westney,0,
211,211,,,,2249:1,,2,-79.04483999999998,43.880069,2,2249,Westney Southbound @ Telford,0,
211,211,,,,2250:1,,1,-79.043719,43.877313,2,2250,Westney Southbound @ Rossland (North side stop),0,
211,211,,,,93143:1,,1,-79.044178,43.87613300000001,1,93143,Rossland Westbound @ Westney,0,
211,211,,,,93057:1,,2,-79.04638522,43.8755334,2,93057,Rossland Westbound @ Carter-Bennett,0,
211,211,,,,93015:1,,2,-79.0500943,43.8747274,2,93015,Rossland Westbound @ Stevensgate,0,
211,211,,,,92018:1,,1,-79.052967,43.87353682,2,92018,Ravenscroft Southbound @ Rossland,0,
211,211,,,,92019:1,,1,-79.052408,43.871963,2,92019,Ravenscroft Southbound @ Hyde,0,
211,211,,,,92020:1,,1,-79.0515815,43.8700233,2,92020,Ravenscroft Southbound @ Delaney,0,
211,211,,,,92036:1,,1,-79.050836,43.8683026,2,92036,Ravenscroft Southbound @ Pantoll,0,
211,211,,,,92037:1,,1,-79.0503198,43.86707220000001,2,92037,Ravenscroft Southbound @ Mosa,0,
211,211,,,,92038:1,,1,-79.048446,43.86361,2,92038,Ravenscroft Southbound @ Daniels,0,
211,211,,,,2264:1,,2,-79.041014,43.860608,2,2264,Westney Southbound @ Millington,0,
211,211,,,,2265:1,,1,-79.041983,43.857804,2,2265,Westney Southbound @ Kingston (North side stop),0,
211,211,,,,2266:1,,1,-79.041345,43.854027,2,2266,Westney Southbound @ Bramwell,0,
211,211,,,,2268:1,,1,-79.03957,43.846828,2,2268,Westney Southbound @ Fairall,0,
211,211,,,,1960:1,,1,-79.078013,43.836906,2,1960,Pickering Parkway Eastbound @ Valley Farm,0,
211,211,,,,1961:1,,1,-79.072916,43.839791,2,1961,Pickering Parkway Northbound @ Portland,0,
211,211,,,,1962:1,,1,-79.07337099999998,43.8413,2,1962,Pickering Parkway Eastbound @ Dreyber,0,
211,211,,,,1963:1,,1,-79.073721,43.84296100000001,2,1963,Pickering Parkway Eastbound @ Denmar,0,
211,211,,,,1964:1,,1,-79.070464,43.843629,2,1964,Eastbound @ 1733 Pickering Parkway,0,
211,211,,,,1965:1,,1,-79.0678524,43.8431731,2,1965,Eastbound @ 1755 Pickering Parkway,0,
211,211,,,,1966:1,,1,-79.065034,43.84381900000001,2,1966,Pickering Parkway Eastbound @ Beechlawn,0,
211,211,,,,941561,,2,-79.062938,43.846852,2,94156,Notion Northbound @ Orchard,0,
211,211,,,,93048:1,,2,-79.06469787,43.85221471,2,93048,Kingston Eastbound @ Notion,0,
211,211,,,,2233:1,,2,-79.060413,43.85324,2,2233,Kingston Eastbound @ Elizabeth,0,
211,211,,,,3229:1,,1,-79.055896,43.855437,2,3229,Church Northbound @ Sherwood,0,
211,211,,,,92009:1,,1,-79.056726,43.857407,2,92009,Northbound @ 89 Church,0,
211,211,,,,92010:1,,1,-79.0576403,43.859534,2,92010,Church Northbound @ Meekings,0,
211,211,,,,92011:1,,1,-79.05902039999998,43.8627026,2,92011,Church Northbound @ 399 Church,0,
211,211,,,,92012:1,,1,-79.05982,43.8645756,2,92012,Church Northbound @ Delaney,0,
211,211,,,,92013:1,,1,-79.061057,43.867394,2,92013,Church Northbound @ Windle,0,
211,211,,,,92014:1,,1,-79.061926,43.86935305,2,92014,Church Northbound @ Strickland,0,
211,211,,,,92016:1,,1,-79.05784,43.87216,2,92016,Rossland Eastbound @ Harkins,0,
211,211,,,,92017:1,,1,-79.053354,43.873877,2,92017,Rossland Eastbound @ Ravenscroft,0,
216,216,,,,93137:1,,1,-79.0297218,43.895662,2,93137,Salem Northbound @ Elliottglen Dr,0,
216,216,,,,2406:1,,2,-79.0315523,43.8979268,1,2406,Taunton Westbound @ Salem,0,
216,216,,,,2407:1,,2,-79.0342846,43.8972765,2,2407,Taunton Westbound @ Middlecote,0,
216,216,,,,93139:1,,2,-79.042023,43.89463400000001,2,93139,Harwood Southbound @ Taunton,0,
216,216,,,,93031:1,,2,-79.03862608999998,43.89090112,2,93031,Harwood Southbound @ Haskell,0,
216,216,,,,93142:1,,2,-79.0376546,43.8885767,2,93142,Harwood Southbound @ Williamson,0,
216,216,,,,2140:1,,2,-79.036797,43.886603,2,2140,Southbound @ 1532 Harwood,0,
216,216,,,,2141:1,,1,-79.03234399999998,43.88507983,2,2141,Harwood Southbound @ Woodcock,0,
216,216,,,,2142:1,,1,-79.030202,43.884808,2,2142,Southbound @ 1370 Harwood,0,
216,216,,,,2143:1,,1,-79.028197,43.88232766,2,2143,Harwood Southbound @ Biggs,0,
216,216,,,,2144:1,,1,-79.0273906,43.8802553,2,2144,Harwood Southbound @ Rossland,0,
216,216,,,,2145:1,,1,-79.026265,43.877704,2,2145,Harwood Southbound @ Fishlock,0,
216,216,,,,2146:1,,1,-79.024716,43.874193,2,2146,Harwood Southbound @ Hibbard,0,
216,216,,,,2147:1,,1,-79.024269,43.87033000000001,2,2147,Harwood Southbound @ Kerrison,0,
216,216,,,,2148:1,,1,-79.02528,43.867723,2,2148,Harwood Southbound @ Ringer,0,
216,216,,,,2149:1,,1,-79.026404,43.86438600000001,2,2149,Harwood Southbound @ Chapman,0,
216,216,,,,2151:1,,1,-79.02633899999998,43.861847,2,2151,Harwood Southbound @ Kingston,0,
216,216,,,,2152:1,,1,-79.02495999999998,43.858871,2,2152,Harwood Southbound @ Gardiner,0,
216,216,,,,2153:1,,2,-79.024118,43.857094,2,2153,Harwood Southbound @ Ontario,0,
216,216,,,,2154:1,,1,-79.023336,43.855292,2,2154,Harwood Southbound @ Brock Street,0,
216,216,,,,2076:1,,2,-79.020696,43.849235,2,2076,Harwood Southbound @ Kings Crescent,0,
216,216,,,,91000:1,,1,-79.020117,43.847692,2,91000,Harwood Southbound @ Hunt,0,
216,216,,,,936221,,1,-79.019197,43.845427,1,93622,Harwood Southbound @ Harwood Plaza,0,
216,216,,,,2078:1,,1,-79.018636,43.844243,1,2078,Harwood Southbound @ Bayly,0,
216,216,,,,2317:1,,1,-79.020186,43.843703,2,2317,Bayly Westbound @ Commercial,0,
216,216,,,,2318:1,,1,-79.021975,43.843281,2,2318,Bayly Westbound @ Woodchester,0,
216,216,,,,2319:1,,1,-79.024703,43.842681,2,2319,Bayly Westbound @ Monarch,0,
216,216,,,,2320:1,,1,-79.0278284,43.8419865,2,2320,Bayly Westbound @ Mackenzie,0,
216,216,,,,2321:1,,1,-79.030484,43.84141000000001,2,2321,Bayly Westbound @ Finley,0,
216,216,,,,2322:1,,1,-79.035039,43.840417,2,2322,Bayly Westbound @ Westney,0,
216,216,,,,2281:1,,1,-79.036025,43.843068,2,2281,Westney Northbound @ O'Brien,0,
216,216,,,,2574:1,,1,-79.039484,43.846447,2,2574,Fairall Eastbound @ Westney (West side stop),0,
216,216,,,,2269:1,,1,-79.03655988,43.8434567,2,2269,Westney Southbound @ O'Brien,0,
216,216,,,,2300:1,,1,-79.03458,43.840287,2,2300,Bayly Eastbound @ Westney,0,
216,216,,,,2301:1,,1,-79.030872,43.841093,2,2301,Bayly Eastbound @ Finley,0,
216,216,,,,2302:1,,1,-79.02756599999998,43.841851,2,2302,Bayly Eastbound @ Mackenzie,0,
216,216,,,,2303:1,,1,-79.025254,43.8423437,2,2303,Bayly Eastbound @ Monarch,0,
216,216,,,,2304:1,,2,-79.02351899999998,43.842726,2,2304,Bayly Eastbound @ Woodchester,0,
216,216,,,,2305:1,,1,-79.02178735174796,43.84317126919851,2,2305,Bayly Eastbound @ Kitney,0,
216,216,,,,2073:1,,1,-79.019272,43.846645,1,2073,Harwood Northbound @ Kings Crescent (South stop),0,
216,216,,,,2074:1,,1,-79.02055799999998,43.84973200000001,2,2074,Harwood Northbound @ Kings Crescent (North stop),0,
216,216,,,,2155:1,,1,-79.02292199999998,43.854752,2,2155,Harwood Northbound @ Oak,0,
216,216,,,,2156:1,,1,-79.023745,43.856625,2,2156,Harwood Northbound @ Doric,0,
216,216,,,,2157:1,,1,-79.024518,43.858455,2,2157,Harwood Northbound @ Mandrake,0,
216,216,,,,2158:1,,1,-79.02605,43.861921,2,2158,Harwood Northbound @ Kingston,0,
216,216,,,,2159:1,,1,-79.026117,43.863997,2,2159,Harwood Northbound @ Chapman,0,
216,216,,,,2160:1,,1,-79.025183,43.867257,2,2160,Harwood Northbound @ Ringer,0,
216,216,,,,2161:1,,1,-79.024135,43.869841,2,2161,Harwood Northbound @ Kerrison,0,
216,216,,,,2162:1,,1,-79.02424999999998,43.873823,2,2162,Harwood Northbound @ Hibbard,0,
216,216,,,,2163:1,,1,-79.025754,43.877314,2,2163,Harwood Northbound @ Fishlock,0,
216,216,,,,2164:1,,1,-79.02673,43.87954400000001,2,2164,Harwood Northbound @ Rossland,0,
216,216,,,,2136:1,,1,-79.02769499999998,43.881794,2,2136,Harwood Northbound @ Biggs,0,
216,216,,,,2137:1,,1,-79.028774,43.88408900000001,2,2137,Harwood Northbound @ Woodcock,0,
216,216,,,,2138:1,,1,-79.032422,43.885292,2,2138,Harwood Westbound @ Woodcock,0,
216,216,,,,2139:1,,1,-79.0372909,43.8880633,2,2139,Harwood Northbound @ Williamson,0,
216,216,,,,93141:1,,1,-79.03853429999998,43.8911583,2,93141,Harwood Northbound @ Haskell,0,
216,216,,,,93140:1,,1,-79.042096,43.895046,2,93140,Harwood Northbound @ Taunton,0,
216,216,,,,2398:1,,1,-79.038914,43.896029,2,2398,Eastbound @ 43 Taunton,0,
216,216,,,,2399:1,,1,-79.034803,43.896906,2,2399,Taunton Eastbound @ Middlecote,0,
216,216,,,,2400:1,,1,-79.0312632,43.897731,1,2400,Taunton Eastbound @ Salem,0,
216,216,,,,93138:1,,1,-79.029968,43.8955183,2,93138,Salem Southbound @ Dunwell Cr,0,
216,216,,,,3044:1,,1,-79.026951,43.893784,2,3044,Williamson Eastbound @ Kirk,0,
216,216,,,,92059:1,,1,-79.0227251,43.89575475,2,92059,Williamson Eastbound @ Gillett,0,
216,216,,,,93127:1,,1,-79.0163395,43.897461,2,93127,Williamson Eastbound @ Warner,0,
216,216,,,,93125:1,,1,-79.01162189999998,43.89836540000001,2,93125,Williamson Eastbound @ Seward,0,
216,216,,,,942321,,2,-79.008041,43.897822,2,94232,Audley Recreation Centre,0,
216,216,,,,93126:1,,1,-79.0118366,43.8984647,2,93126,Williamson Westbound @ Stokes,0,
216,216,,,,92061:1,,1,-79.016244,43.89760600000001,2,92061,Williamson Westbound @ Warner,0,
216,216,,,,93128:1,,1,-79.02289399999998,43.895826,2,93128,Williamson Westbound @ Gillett,0,
216,216,,,,3045:1,,1,-79.026201,43.894659,2,3045,Williamson Westbound @ Sergeant,0,
222,222,,,,2307:1,,1,-79.012218,43.845278,2,2307,Bayly Eastbound @ Burcher,0,
222,222,,,,2308:1,,1,-79.009096,43.846033,2,2308,Bayly Eastbound @ Porte,0,
222,222,,,,2309:1,,1,-79.006585,43.846502,1,2309,Bayly Eastbound @ Pickering Beach,0,
222,222,,,,2718:1,,1,-79.001192,43.847742,2,2718,Bayly Eastbound @ Boone,0,
222,222,,,,2310:1,,2,-78.99917499999998,43.848164,2,2310,Bayly Eastbound @ Shoal Point,0,
222,222,,,,3060:1,,2,-78.9927232,43.8495633,2,3060,Eastbound @ 509 Bayly,0,
222,222,,,,3061:1,,1,-78.989176,43.850332,1,3061,Bayly Eastbound @ Audley,0,
222,222,,,,3062:1,,2,-78.987917,43.848222,2,3062,Audley Southbound @ Keywood,0,
222,222,,,,3554:1,,2,-78.98729,43.84519,2,3554,Audley Southbound @ Denny,0,
222,222,,,,3063:1,,2,-78.986321,43.84292,2,3063,Audley Southbound @ Sharplin,0,
222,222,,,,3509:1,,2,-78.9851889,43.83875,2,3509,Audley Southbound @ Moynahan,0,
222,222,,,,3064:1,,2,-78.986706,43.836116,2,3064,Audley Southbound @ Holloway,0,
222,222,,,,3066:1,,1,-78.985326,43.832312,2,3066,Audley Southbound @ Ashbury,0,
222,222,,,,3067:1,,2,-78.991383,43.83294,2,3067,Ashbury Westbound @ Shoal Point,0,
222,222,,,,20881,,2,-78.99327,43.83037,2,2088,Range Line westbound @ Mayor Crescent,0,
222,222,,,,941611,,2,-78.99907,43.82911,2,94161,Range Line westbound @ Poplar Ave,0,
222,222,,,,2092:1,,2,-79.0021836,43.8317563,1,2092,Pickering Beach Northbound @ Rollo (South stop),0,
222,222,,,,2093:1,,1,-79.00351499999998,43.83484,2,2093,Northbound @ 727 Pickering Beach,0,
222,222,,,,2094:1,,1,-79.0042527,43.8365894,2,2094,Pickering Beach Northbound @ Rollo (North stop),0,
222,222,,,,2095:1,,1,-79.006067,43.841101,1,2095,Pickering Beach Northbound @ Howling Crescent,0,
222,222,,,,2096:1,,1,-79.006018,43.84355324,2,2096,Pickering Beach Northbound @ Greenhalf,0,
222,222,,,,2097:1,,1,-79.00557499999998,43.84503584,2,2097,Pickering Beach Northbound @ Powers Valley,0,
222,222,,,,2313:1,,2,-79.007018,43.846629,1,2313,Bayly Westbound @ Salem,0,
222,222,,,,2314:1,,1,-79.009124,43.846159,2,2314,Bayly Westbound @ Porte,0,
222,222,,,,2315:1,,1,-79.01148499999998,43.845625,2,2315,Bayly Westbound @ Burcher,0,
222,222,,,,2316:1,,2,-79.017732,43.844242,1,2316,Bayly Westbound @ Harwood,0,
222,222,,,,2280:1,,1,-79.0353224,43.8412546,2,2280,Westney Northbound @ Bayly (North side stop),0,
224,224,,,,2053:1,,2,-79.023794,43.839545,2,2053,Monarch Southbound @ Centennial,0,
224,224,,,,2054:1,,2,-79.022383,43.83624600000001,2,2054,Southbound @ 556 Monarch,0,
224,224,,,,20551,,1,-79.021721,43.834733,2,2055,Monarch Southbound @ Clements,0,
224,224,,,,920461,,1,-79.023697,43.834101,2,92046,Clements Westbound @ MacKenzie,0,
224,224,,,,92047:1,,1,-79.0269981,43.8333729,2,92047,Clements Westbound @ Finley,0,
224,224,,,,940901,,1,-79.032704,43.832102,2,94090,Clements Westbound @ Westney,0,
224,224,,,,3074:1,,2,-79.0317767202293,43.82928325297049,1,3074,Lake Driveway Westbound @ Walker,0,
224,224,,,,3075:1,,2,-79.033125,43.826381,2,3075,Lake Driveway Southbound @ Vale,0,
224,224,,,,3076:1,,2,-79.034343,43.823696,2,3076,Lake Driveway Southbound @ Hawkins,0,
224,224,,,,3077:1,,2,-79.030201,43.820175,2,3077,Parkes Northbound @ Varley,0,
224,224,,,,3261:1,,2,-79.02805499999998,43.821614,2,3261,Parkes Eastbound @ Farrow,0,
224,224,,,,3078:1,,2,-79.026328,43.8232,2,3078,Parkes Eastbound @ Finley,0,
224,224,,,,2015:1,,1,-79.02283199999998,43.821244,2,2015,Finley Southbound @ Burden,0,
224,224,,,,2016:1,,2,-79.019469,43.819269,2,2016,Finley Southbound @ Lake Driveway,0,
224,224,,,,2062:1,,2,-79.012673,43.821489,2,2062,Lake Driveway Eastbound @ Harwood,0,
224,224,,,,2063:1,,1,-79.01264,43.822912,1,2063,Harwood Northbound @ McRae,0,
224,224,,,,2064:1,,1,-79.013211,43.825457,2,2064,Harwood Northbound @ Clover Ridge,0,
224,224,,,,2065:1,,1,-79.013822,43.82833209000001,2,2065,Harwood Northbound @ Gorton,0,
224,224,,,,2066:1,,1,-79.014268,43.83001,2,2066,Northbound @ 819 Harwood,0,
224,224,,,,3231:1,,2,-79.014381,43.830787,1,3231,Harwood Northbound @ Dreyer,0,
224,224,,,,2067:1,,1,-79.01477,43.83263,2,2067,Northbound @ 721 Harwood,0,
224,224,,,,2068:1,,1,-79.014843,43.836126,1,2068,Northbound @ 655 Harwood,0,
224,224,,,,2069:1,,1,-79.01542,43.837528,2,2069,Harwood Northbound @ Emperor (Lakeridge Health Ajax Pickering),0,
224,224,,,,2070:1,,2,-79.017956,43.839992,2,2070,Harwood Northbound @ Falby,0,
224,224,,,,2072:1,,1,-79.018082,43.843789,1,2072,Harwood Northbound @ Bayly,0,
224,224,,,,93121:1,,2,-79.022762,43.85131100000001,2,93121,Station Westbound @ Harwood,0,
224,224,,,,93122:1,,2,-79.02585999999998,43.85056,2,93122,Station Westbound @ Mills,0,
224,224,,,,93123:1,,1,-79.028733,43.8491309,2,93123,Station Westbound @ Dowty,0,
224,224,,,,2328:1,,1,-79.030842,43.848622,2,2328,Fairall Westbound @ Dowty,0,
224,224,,,,2329:1,,1,-79.034274,43.847858,2,2329,Fairall Westbound @ McMaster,0,
224,224,,,,2330:1,,1,-79.038432,43.84696000000001,2,2330,Fairall Westbound @ Westney,0,
224,224,,,,93152:1,,1,-79.015986,43.86368800000001,2,93152,Salem Northbound @ Kingston,0,
224,224,,,,93150:1,,1,-79.0171273,43.8666738,2,93150,Salem Northbound @ Ringer,0,
224,224,,,,93148:1,,1,-79.0177597,43.8704308,2,93148,Salem Northbound @ Kerrison,0,
224,224,,,,93146:1,,2,-79.01727099999998,43.87883,2,93146,Northbound @ 789 Salem,0,
224,224,,,,3043:1,,2,-79.018414,43.881461,2,3043,Salem Northbound @ Rossland,0,
224,224,,,,3041:1,,2,-79.021938,43.88440700000001,2,3041,Salem Northbound @ Harper Hill,0,
224,224,,,,3039:1,,2,-79.026599,43.888491,2,3039,Salem Northbound @ Gillett,0,
224,224,,,,93161:1,,1,-79.028651,43.89315689,2,93161,Salem Northbound @ Williamson,0,
224,224,,,,2331:1,,1,-79.0381401,43.8469093,2,2331,Fairall Eastbound @ Westney (East side stop),0,
224,224,,,,2332:1,,1,-79.034135,43.847784,2,2332,Fairall Eastbound @ McMaster,0,
224,224,,,,2333:1,,1,-79.0293951,43.8488203,2,2333,Fairall Eastbound @ Dowty,0,
224,224,,,,2351:1,,2,-79.024869,43.850729,2,2351,Eastbound @ 87 Station,0,
224,224,,,,2352:1,,2,-79.021846,43.85141200000001,2,2352,Station Eastbound @ Harwood,0,
224,224,,,,2079:1,,1,-79.018227,43.839809,2,2079,Harwood Southbound @ Falby,0,
224,224,,,,2080:1,,1,-79.015332,43.83667100000001,2,2080,Southbound @ 580 Harwood Avenue South (Lakeridge Health Ajax Pickering),0,
224,224,,,,2081:1,,1,-79.015122,43.83498800000001,2,2081,Harwood Southbound @ Clements,0,
224,224,,,,2082:1,,1,-79.01500299999998,43.83234800000001,2,2082,Southbound @ 766 Harwood,0,
224,224,,,,2083:1,,1,-79.014812,43.831109,1,2083,Harwood Southbound @ Westney,0,
224,224,,,,3083:1,,2,-79.014208,43.828548,2,3083,Harwood Southbound @ Windebanks,0,
224,224,,,,2059:1,,1,-79.015046,43.82488,2,2059,Clover Ridge Southbound @ Pittmann,0,
224,224,,,,2060:1,,1,-79.014773,43.822811,2,2060,Clover Ridge Southbound @ Bolland,0,
224,224,,,,2061:1,,2,-79.01454099999998,43.82116,2,2061,Clover Ridge Southbound @ Lake Driveway,0,
224,224,,,,3079:1,,2,-79.018865,43.819471,2,3079,Lake Driveway Westbound @ Finley,0,
224,224,,,,3080:1,,2,-79.022861,43.821367,2,3080,Finley Northbound @ Burden,0,
224,224,,,,3081:1,,2,-79.02708699999998,43.822975,2,3081,Parkes Westbound @ Farrow,0,
224,224,,,,3260:1,,2,-79.028417,43.821355,2,3260,Parkes Westbound @ Milner,0,
224,224,,,,3082:1,,2,-79.030493,43.820159,2,3082,Parkes Southbound @ Lake Driveway,0,
224,224,,,,2022:1,,1,-79.034075,43.823774,2,2022,Lake Driveway Northbound @ Hawkins,0,
224,224,,,,2023:1,,1,-79.032934,43.826225,2,2023,Lake Driveway Northbound @ Kipling,0,
224,224,,,,2024:1,,1,-79.032247,43.8289,1,2024,Lake Driveway Eastbound @ Walker,0,
224,224,,,,2277:1,,1,-79.032781,43.831821,2,2277,Westney Northbound @ Clements,0,
224,224,,,,940891,,2,-79.027482,43.833128,2,94089,Clements Eastbound @ Finley,0,
224,224,,,,940881,,2,-79.021702,43.834981,2,94088,Monarch Northbound @ Clements,0,
224,224,,,,3096:1,,2,-79.022498,43.836801,2,3096,Northbound @ 574 Monarch,0,
224,224,,,,3097:1,,2,-79.023607,43.839393,2,3097,Monarch Northbound @ Centennial,0,
224,224,,,,92064:1,,1,-79.028741,43.892717,2,92064,Salem Southbound @ Williamson,0,
224,224,,,,93160:1,,1,-79.027818,43.890577,2,93160,Southbound @ 1508 Salem,0,
224,224,,,,3038:1,,2,-79.026786,43.88831017,2,3038,Salem Southbound @ Thackery,0,
224,224,,,,3042:1,,2,-79.019056,43.88210500000001,1,3042,Salem Southbound @ Rossland,0,
224,224,,,,93145:1,,1,-79.017714,43.879163,2,93145,Southbound @ 800 Salem,0,
224,224,,,,93147:1,,2,-79.0177387,43.8711003,2,93147,Salem Southbound @ Kerrison,0,
224,224,,,,93149:1,,2,-79.0176202,43.8671137,2,93149,Salem Southbound @ Ringer,0,
224,224,,,,93151:1,,1,-79.016129,43.86358,2,93151,Salem Southbound @ Kingston,0,
224,224,,,,92071:1,,1,-79.01519546999998,43.86138006,2,92071,Salem Southbound @ Twilley,0,
224,224,,,,92075:1,,1,-79.01450543,43.85988205000001,2,92075,Salem Southbound @ Mandrake,0,
224,224,,,,3266:1,,2,-79.00961840932924,43.85275219675408,2,3266,Salem Southbound @ Achilles,0,
224,224,,,,3052:1,,2,-79.007221,43.849663,2,3052,Salem Southbound @ Lord,0,
224,224,,,,3053:1,,2,-79.00620876374902,43.84686809732681,1,3053,Salem Southbound @ Bayly,0,
224,224,,,,3054:1,,2,-79.00602185445216,43.84421074545585,2,3054,Pickering Beach Southbound @ Michaelman,0,
224,224,,,,3055:1,,2,-79.00649,43.842824,2,3055,Pickering Beach Southbound @ Hickman,0,
224,224,,,,3056:1,,1,-79.006118,43.840676,1,3056,Pickering Beach Southbound @ Emperor,0,
224,224,,,,3057:1,,2,-79.004638,43.837128,2,3057,Pickering Beach Southbound @ Foord,0,
224,224,,,,3058:1,,2,-79.003576,43.834673,2,3058,Southbound @ 722 Pickering Beach,0,
224,224,,,,3059:1,,1,-79.00228199999998,43.831646,1,3059,Pickering Beach Southbound @ Rollo,0,
224,224,,,,2029:1,,1,-79.003947,43.830365,2,2029,Clover Ridge Southbound @ Bryant,0,
224,224,,,,2030:1,,1,-79.00503,43.829063,2,2030,Clover Ridge Southbound @ Gregory,0,
224,224,,,,2031:1,,1,-79.0073526,43.827273,2,2031,Clover Ridge Westbound @ Crawford,0,
224,224,,,,2058:1,,1,-79.01322,43.82619600000001,1,2058,Clover Ridge Westbound @ Harwood,0,
224,224,,,,3253:1,,1,-79.012367,43.82622,1,3253,Clover Ridge Eastbound @ Andrea,0,
224,224,,,,3085:1,,2,-79.00769,43.8271,2,3085,Clover Ridge Eastbound @ Crawford,0,
224,224,,,,3086:1,,2,-79.00429099999998,43.829813,2,3086,Clover Ridge Eastbound @ Clarke,0,
224,224,,,,3048:1,,1,-79.005762,43.846466,1,3048,Pickering Beach Northbound @ Bayly,0,
224,224,,,,3049:1,,2,-79.006791,43.849311,2,3049,Salem Northbound @ Lord,0,
224,224,,,,3265:1,,2,-79.009521,43.85314000000001,2,3265,Salem Northbound @ Achilles,0,
224,224,,,,92054:1,,1,-79.01441303999998,43.86054494,2,92054,Northbound @ 133 Salem,0,
291,291,,,,2276:1,,2,-79.016374,43.83075500000001,2,2276,Westney Eastbound @ Harwood,0,
291,291,,,,36151,,1,-79.016527,43.837188,2,3615,Lakeridge Health Ajax Pickering East Entrance,0,
291,291,,,,3332:1,,2,-79.0210868,43.8464652,2,3332,Harwood Plaza Westbound,0,
291,291,,,,2326:1,,1,-79.023348,43.846722,2,2326,Hunt Westbound @ Mills,0,
291,291,,,,92045:1,,2,-79.025808,43.84443987,2,92045,Monarch Southbound @ Stonewood,0,
291,291,,,,2241:1,,1,-79.025056,43.861263,1,2241,Kingston Eastbound @ Harwood,0,
291,291,,,,2242:1,,1,-79.021604,43.862037,2,2242,Eastbound @ 69 Kingston,0,
291,291,,,,1940:1,,2,-79.013503,43.866833,2,1940,Walmart Westbound @ Kingston,0,
291,291,,,,1591:1,,1,-79.0168413,43.8634084,1,1591,Kingston Westbound @ Salem,0,
291,291,,,,90003:1,,2,-79.02437412,43.8645589,2,90003,Durham Centre Westbound @ Harwood,0,
291,291,,,,1594:1,,1,-79.0267418,43.8611712,1,1594,Kingston Westbound @ Harwood,0,
291,291,,,,1595:1,,1,-79.031718,43.859995,2,1595,Westbound @ 132 Kingston,0,
291,291,,,,1596:1,,1,-79.035043,43.859254,2,1596,Kingston Westbound @ Chapman,0,
291,291,,,,1597:1,,1,-79.03932,43.85832,2,1597,Kingston Westbound @ Westney Heights Plaza,0,
291,291,,,,1598:1,,1,-79.043041,43.85744,1,1598,Kingston Westbound @ Westney,0,
291,291,,,,1599:1,,2,-79.047905,43.856298,2,1599,Kingston Westbound @ Mill,0,
291,291,,,,1600:1,,2,-79.05529,43.85465700000001,1,1600,Kingston Westbound @ Church,0,
291,291,,,,1911:1,,1,-79.082959,43.83575900000001,2,1911,Northbound @ 1869 Glenanna,0,
291,291,,,,19121,,1,-79.08439,43.83753,2,1912,Glenanna Northbound @ The Esplanade,0,
291,291,,,,1740:1,,1,-79.090142,43.83457,2,1740,Liverpool Southbound @ Kingston (South side stop),0,
291,291,,,,1741:1,,1,-79.089382,43.832976,2,1741,Liverpool Southbound @ Pickering Parkway,0,
291,291,,,,1729:1,,2,-79.08913099999998,43.833073,2,1729,Liverpool Northbound @ Pickering Parkway,0,
291,291,,,,2234:1,,2,-79.056628,43.85417000000001,1,2234,Eastbound @ 625 Kingston,0,
291,291,,,,2235:1,,2,-79.048411,43.85603900000001,2,2235,Kingston Eastbound @ Mill,0,
291,291,,,,2236:1,,1,-79.0409645,43.8576991,1,2236,Kingston Eastbound @ Westney,0,
291,291,,,,3029:1,,2,-79.038196,43.858316,2,3029,Kingston Eastbound @ Westney Heights Plaza,0,
291,291,,,,2238:1,,1,-79.035728,43.858841,2,2238,Kingston Eastbound @ Ritchie,0,
291,291,,,,2240:1,,1,-79.028621,43.860433,2,2240,Eastbound @ 113 Kingston,0,
291,291,,,,3329:1,,1,-79.020169,43.841898,2,3329,Southbound @ 40 Kitney,0,
291,291,,,,3330:1,,2,-79.020066,43.839531,2,3330,Ajax Community Centre,0,
291,291,,,,3328:1,,2,-79.01886399999998,43.836622,2,3328,Kitney @ Lakeridge Health Ajax Pickering,0,
301,301,,,,125:1,,2,-78.96736199999998,43.912852,2,125,Taunton Eastbound @ Cochrane,0,
301,301,,,,127:1,,1,-78.966002,43.909537,2,127,Cochrane Southbound @ Medland,0,
301,301,,,,129:1,,1,-78.964539,43.905578,2,129,Cochrane Southbound @ Twin Streams,0,
301,301,,,,942171,,2,-78.971618,43.903411,2,94217,Twin Streams Westbound @ Country Lane,0,
301,301,,,,942181,,2,-78.970565,43.900967,2,94218,Country Lane Southbound @ Randolph,0,
301,301,,,,942191,,2,-78.970089,43.89899,2,94219,Country Lane Southbound @ Nugget,0,
301,301,,,,942201,,2,-78.967311,43.896271,2,94220,Country Lane Southbound @ Tidewater,0,
301,301,,,,942211,,2,-78.965899,43.894248,2,94221,Country Lane Southbound @ Rossland,0,
301,301,,,,936101,,2,-78.972246,43.89277,2,93610,Rossland Westbound @ Coronation,0,
301,301,,,,940591,,2,-78.97844,43.89052,2,94059,McQuay Southbound @ Rossland,0,
301,301,,,,940601,,2,-78.973695,43.889751,2,94060,McQuay Eastbound @ Muir,0,
301,301,,,,940611,,2,-78.971264,43.889924,2,94061,McQuay Eastbound @ Jacob,0,
301,301,,,,940621,,2,-78.969356,43.888161,2,94062,McQuay Southbound @ Renfield,0,
301,301,,,,94063.1,,2,-78.968639,43.885318,2,94063,McQuay Southbound @ Guthrie,0,
301,301,,,,940641,,2,-78.96784,43.88422400000001,2,94064,McQuay Southbound @ Bonacord,0,
301,301,,,,138:1,,1,-78.966575,43.881419,2,138,McQuay Southbound @ Roan,0,
301,301,,,,139:1,,1,-78.96569599999998,43.879842,2,139,McQuay Southbound @ Kennett,0,
301,301,,,,140:1,,1,-78.963114,43.878277,2,140,McQuay Southbound @ Moonstone,0,
301,301,,,,141:1,,1,-78.962215,43.876649,2,141,McQuay Southbound @ Allayden,0,
301,301,,,,419:1,,1,-78.956299,43.876609,2,419,Dundas Eastbound @ Wellington,0,
301,301,,,,942231,,2,-78.951239,43.875683,2,94223,Annes Southbound @ Dunlop,0,
301,301,,,,942241,,2,-78.949746,43.872021,2,94224,Annes @ Annes Street Park,0,
301,301,,,,942251,,2,-78.947512,43.869621,2,94225,Burns Eastbound @ McCulloug,0,
301,301,,,,151:1,,2,-78.943946,43.870396,2,151,BURNS @ HENRY e ns,0,
301,301,,,,152:1,,2,-78.940651,43.871125,2,152,BURNS @ CENTRE e fs,0,
301,301,,,,216:1,,2,-78.938597,43.871232,1,216,Brock Street Southbound @ Burns,0,
301,301,,,,217:1,,2,-78.9376805,43.8691799,2,217,Brock Street Southbound @ Arthur,0,
301,301,,,,2576:1,,1,-78.93794,43.865496,1,2576,Whitby Station,0,
301,301,,,,166:1,,2,-78.937411,43.86900700000001,2,166,Brock Street Northbound @ Arthur,0,
301,301,,,,89:1,,2,-78.941511,43.87103,2,89,BURNS @ CENTRE w fs,0,
301,301,,,,90:1,,2,-78.944504401,43.8703679,2,90,BURNS @ HENRY w fs,0,
301,301,,,,91:1,,1,-78.9479702,43.8696061,2,91,Burns Westbound @ Annes (East side stop),0,
301,301,,,,942131,,2,-78.948986,43.870916,2,94213,Annes Northbound @ Harriet,0,
301,301,,,,942141,,2,-78.950973,43.875489,2,94214,Annes Northbound @ Dunlop,0,
301,301,,,,404:1,,1,-78.9562584,43.8767817,2,404,Dundas Westbound @ Wellington,0,
301,301,,,,100:1,,1,-78.961715,43.87593224,2,100,McQuay Northbound @ Dundas,0,
301,301,,,,101:1,,1,-78.96314599999998,43.878431,2,101,McQuay Northbound @ Moonstone,0,
301,301,,,,102:1,,1,-78.965224,43.879593,2,102,McQuay Northbound @ Kennett,0,
301,301,,,,103:1,,1,-78.966408,43.881326,2,103,McQuay Northbound @ Balsdon,0,
301,301,,,,104:1,,1,-78.9673866,43.8836627,2,104,McQuay Northbound @ Bonacord,0,
301,301,,,,105:1,,1,-78.968363,43.8852378,2,105,McQuay Northbound @ Guthrie,0,
301,301,,,,106:1,,1,-78.969264,43.888336,2,106,McQuay Northbound @ Renfield,0,
301,301,,,,107:1,,1,-78.97109399999998,43.89000200000001,2,107,McQuay Northbound @ Jacob,0,
301,301,,,,108:1,,1,-78.97463999999998,43.889791,2,108,McQuay Westbound @ Muir,0,
301,301,,,,471:1,,1,-78.978273,43.891145,1,471,Rossland Eastbound @ McQuay,0,
301,301,,,,936111,,2,-78.972611,43.892561,2,93611,Rossland Eastbound @ Coronation,0,
301,301,,,,110:1,,1,-78.965943,43.894933,2,110,Country Lane Northbound @ Rossland,0,
301,301,,,,114:1,,1,-78.966829,43.896118,2,114,Country Lane Northbound @ Wetherburn,0,
301,301,,,,115:1,,1,-78.969667,43.898544,2,115,Country Lane Northbound @ Gartshore,0,
301,301,,,,116:1,,1,-78.970374,43.900852,2,116,Country Lane Northbound @ Randolph,0,
301,301,,,,117:1,,1,-78.9716001,43.9031059,2,117,Country Lane Northbound @ Twin Streams,0,
301,301,,,,93091:1,,1,-78.97245,43.90503,2,93091,Country Lane Northbound @ Shenandoah,0,
301,301,,,,118:1,,1,-78.973335,43.907044,2,118,Country Lane Northbound @ Medland,0,
301,301,,,,93092:1,,1,-78.9747169,43.9091991,2,93092,Country Lane Northbound @ Vineyard,0,
301,301,,,,119:1,,1,-78.9766051,43.9105664,2,119,Country Lane Northbound @ Taunton,0,
301,301,,,,93083:1,,1,-78.97113899999998,43.91197,2,93083,Eastbound @ 437 Taunton,0,
302,302,,,,167:1,,2,-78.93832,43.87108400000001,1,167,Brock Street Northbound @ St Peter,0,
302,302,,,,168:1,,2,-78.938948,43.872514,2,168,Brock Street Northbound @ Burns,0,
302,302,,,,169:1,,2,-78.93940499999998,43.873574,2,169,Brock Street Northbound @ Trent,0,
302,302,,,,170:1,,2,-78.9408107746133,43.87664417732835,2,170,Brock Street Northbound @ Gilbert,0,
302,302,,,,171:1,,2,-78.94210099999998,43.879703,1,171,Brock Street Northbound @ Dundas,0,
302,302,,,,172:1,,2,-78.943093,43.882531,2,172,Brock Street Northbound @ John,0,
302,302,,,,173:1,,2,-78.943797,43.884079,2,173,Brock Street Northbound @ Walnut,0,
302,302,,,,174:1,,2,-78.944286,43.88521,2,174,Brock Street Northbound @ Chestnut,0,
302,302,,,,175:1,,2,-78.94474599999998,43.886266,2,175,Brock Street Northbound @ Maple,0,
302,302,,,,176:1,,1,-78.94666,43.89055,2,176,Northbound @ 807 Brock Street,0,
302,302,,,,177:1,,1,-78.94736,43.89226,1,177,Brock Street Northbound @ Manning,0,
302,302,,,,179:1,,1,-78.9483474,43.8946592,2,179,Brock Street Northbound @ Wallace,0,
302,302,,,,180:1,,1,-78.949308,43.896874,2,180,Brock Street Northbound @ Rossland,0,
302,302,,,,181:1,,2,-78.950988,43.900152,2,181,Brock Street Northbound @ Kenneth Hobbs,0,
302,302,,,,182:1,,2,-78.95233,43.903112,1,182,Brock Street Northbound @ Dryden,0,
302,302,,,,183:1,,2,-78.953906,43.90666800000001,2,183,Northbound @ 3603 Brock Street,0,
302,302,,,,184:1,,2,-78.954721,43.908529,1,184,Brock Street Northbound @ Woodlands,0,
302,302,,,,185:1,,2,-78.956318,43.91229400000001,2,185,Brock Street Northbound @ Joy Thompson,0,
302,302,,,,186:1,,1,-78.957317,43.91494265,2,186,Brock Street Northbound @ Taunton,0,
302,302,,,,187:1,,1,-78.958405,43.91826600000001,2,187,Baldwin Northbound @ Broadleaf,0,
302,302,,,,188:1,,2,-78.960088,43.922073,2,188,Baldwin Northbound @ Robert Attersley,0,
302,302,,,,189:1,,2,-78.961574,43.92549000000001,2,189,Baldwin Northbound @ Sleepy Hollow,0,
302,302,,,,93041:1,,1,-78.96275199999998,43.93034,2,93041,Baldwin Northbound @ Canary,0,
302,302,,,,190:1,,2,-78.961073,43.935355,2,190,Baldwin Northbound @ Robmar,0,
302,302,,,,941051,,1,-78.95963,43.94436000000001,2,94105,Baldwin-Highway 407 Park and Ride,0,
302,302,,,,490:1,,1,-78.961822,43.951339,2,490,Baldwin Northbound @ Roybrook,0,
302,302,,,,491:1,,2,-78.962199,43.953127,2,491,Baldwin Northbound @ Winchester,0,
302,302,,,,492:1,,2,-78.961218,43.95580300000001,1,492,Baldwin Northbound @ Cassels,0,
302,302,,,,941071,,2,-78.965508,43.957026,2,94107,Vipond Westbound @ Montgomery,0,
302,302,,,,941081,,2,-78.969778,43.956074,2,94108,Vipond Westbound @ Ferguson,0,
302,302,,,,941091,,2,-78.972343,43.955498,2,94109,Vipond Westbound @ Darrius Harns,0,
302,302,,,,941101,,2,-78.974259,43.961669,2,94110,Carnwith Eastbound @ Darius Harns,0,
302,302,,,,941111,,2,-78.97233799999998,43.96210700000001,2,94111,Carnwith Eastbound @ Bayern,0,
302,302,,,,941121,,2,-78.96767699999998,43.962238,2,94112,Carnwith Eastbound @ Montgomery,0,
302,302,,,,93482:1,,1,-78.9578328,43.9668955,2,93482,Carnwith Eastbound @ Baldwin,0,
302,302,,,,93484:1,,1,-78.951755,43.967258,2,93484,Carnwith Eastbound @ Watford,0,
302,302,,,,93485:1,,1,-78.9488879,43.9679088,2,93485,Carnwith Eastbound @ Thickson,0,
302,302,,,,5331,,2,-78.945648,43.96218,2,533,Thickson Southbound @ Blackfriar,0,
302,302,,,,940941,,1,-78.942081,43.957557,1,94094,Winchester Eastbound @ Winchester,0,
302,302,,,,940931,,1,-78.937482,43.958574,2,94093,Winchester Eastbound @ Cachet,0,
302,302,,,,3603:1,,2,-78.904278,43.963141,1,3603,Windfields Farm Westbound @ Thoroughbred,0,
302,302,,,,3592:1,,2,-78.909043,43.962037,2,3592,Windfields Farm Westbound @ Kentucky Derby,0,
302,302,,,,3604:1,,2,-78.914539,43.96031,2,3604,Windfields Farm Southbound @ Stallion,0,
302,302,,,,3605:1,,2,-78.913582,43.956586,2,3605,Windfields Farm Southbound @ Dress Circle,0,
302,302,,,,941151,,2,-78.9102,43.95367,2,94115,Britannia Eastbound @ Windfields Farm,0,
302,302,,,,3579:1,,2,-78.9057703,43.9545412,2,3579,Britannia Eastbound @ Kentucky Derby,0,
302,302,,,,3423:1,,2,-78.90163,43.9555,2,3423,Britannia Eastbound @ Thoroughbred,0,
302,302,,,,3556:1,,2,-78.8997537673666,43.95564229526925,1,3556,Simcoe Southbound @ Britannia,0,
302,302,,,,3542:1,,2,-78.896877,43.94919,2,3542,Simcoe Southbound @ Conlin,0,
302,302,,,,90076:1,,1,-78.894148,43.94634257,1,90076,Simcoe Southbound @ Founders,0,
302,302,,,,698:1,,1,-78.895505,43.943641,2,698,Ontario Tech / Durham College North Campus,0,
302,302,,,,3608:1,,2,-78.894075,43.94666800000001,1,3608,Simcoe Northbound @ Founders,0,
302,302,,,,2712:1,,1,-78.895601,43.947746,2,2712,Simcoe Northbound @ Conlin,0,
302,302,,,,705:1,,2,-78.89823,43.952855,2,705,Simcoe Northbound @ Northern Dancer,0,
302,302,,,,3422:1,,2,-78.90185,43.9557,2,3422,Britannia Westbound @ Thoroughbred,0,
302,302,,,,3366:1,,2,-78.905928,43.95470000000001,2,3366,Britannia Westbound @ Kentucky Derby,0,
302,302,,,,3580:1,,2,-78.9106833,43.9537361,2,3580,Britannia Westbound @ Windfields Farms,0,
302,302,,,,3602:1,,2,-78.913442,43.956693,2,3602,Windfields Farm Northbound @ Equestrian,0,
302,302,,,,3601:1,,2,-78.914635,43.959762,2,3601,Windfields Farm Northbound @ Bandsman,0,
302,302,,,,3600:1,,2,-78.909473,43.961779,2,3600,Windfields Farm Eastbound @ Kentucky Derby,0,
302,302,,,,3591:1,,2,-78.90513,43.962738,1,3591,Windfields Farm Eastbound @ Thoroughbred,0,
302,302,,,,93553:1,,2,-78.936407,43.95900300000001,2,93553,Winchester Westbound @ Cachet,0,
302,302,,,,36171,,2,-78.94370499999998,43.958227,1,3617,Thickson Northbound @ Winchester,0,
302,302,,,,36181,,2,-78.945277,43.961855,2,3618,Thickson Northbound @ Blackfriar,0,
302,302,,,,505:1,,1,-78.94893399999998,43.968094,2,505,Carnwith Westbound @ Thickson,0,
302,302,,,,506:1,,1,-78.9528905,43.9673515,2,506,Carnwith Westbound @ Croxall,0,
302,302,,,,507:1,,1,-78.956391,43.967171,2,507,Carnwith Westbound @ Downey,0,
302,302,,,,3548:1,,2,-78.95911,43.9668,2,3548,Carnwith Westbound @ Baldwin,0,
302,302,,,,3545:1,,2,-78.96784,43.9624,2,3545,Carnwith Westbound @ Montgomery,0,
302,302,,,,3543:1,,2,-78.9725,43.96223,2,3543,Carnwith Westbound @ Bayern,0,
302,302,,,,3544:1,,2,-78.97506,43.96165,2,3544,Carnwith Westbound @ Darius Harns,0,
302,302,,,,514:1,,1,-78.97358749999998,43.9550968,2,514,Vipond Eastbound @ Sabrina,0,
302,302,,,,513:1,,1,-78.9694672,43.9560241,2,513,Vipond Eastbound @ Ferguson,0,
302,302,,,,512:1,,1,-78.9653316,43.9569741,2,512,Vipond Eastbound @ Montgomery,0,
302,302,,,,511:1,,2,-78.9612058,43.95703060000001,1,511,Campbell Eastbound @ Baldwin,0,
302,302,,,,36271,,2,-78.96136799999998,43.955959,2,3627,Baldwin Southbound @ Cassels,0,
302,302,,,,3549:1,,2,-78.9624,43.95347000000001,2,3549,Baldwin Southbound @ Winchester,0,
302,302,,,,535:1,,2,-78.961834,43.950765,2,535,Baldwin Southbound @ Roybrook,0,
302,302,,,,191:1,,2,-78.96117,43.935439,2,191,Baldwin Southbound @ Robmar,0,
302,302,,,,93040:1,,1,-78.962969,43.92999275,2,93040,Baldwin Southbound @ Canary,0,
302,302,,,,192:1,,2,-78.962027,43.925998,2,192,Baldwin Southbound @ Sonley,0,
302,302,,,,193:1,,2,-78.96051,43.922437,2,193,Baldwin Southbound @ Robert Attersley (North side stop),0,
302,302,,,,195:1,,1,-78.958862,43.918627,2,195,Baldwin Southbound @ Broadleaf,0,
302,302,,,,196:1,,2,-78.95792659999998,43.9161151,2,196,Baldwin Southbound @ Taunton,0,
302,302,,,,197:1,,1,-78.957001,43.913297,2,197,Southbound @ 3800 Brock Street,0,
302,302,,,,198:1,,2,-78.955175,43.909126,1,198,Brock Street Southbound @ Whitburn,0,
302,302,,,,199:1,,2,-78.954297,43.907209,2,199,Southbound @ 3626 Brock Street,0,
302,302,,,,200:1,,2,-78.952735,43.903602,1,200,Brock Street Southbound @ James Rowe,0,
302,302,,,,201:1,,2,-78.951449,43.900605,2,201,Brock Street Southbound @ McCartney,0,
302,302,,,,202:1,,1,-78.950113,43.897776,2,202,Brock Street Southbound @ Rossland,0,
302,302,,,,203:1,,1,-78.94865,43.89499,2,203,Brock Street Southbound @ Palmerston,0,
302,302,,,,204:1,,1,-78.94755,43.89251,1,204,Brock Street Southbound @ Starr (North side stop),0,
302,302,,,,205:1,,1,-78.947226,43.89159,2,205,Brock Street Southbound @ Starr (South side stop),0,
302,302,,,,206:1,,1,-78.9467193,43.8904162,2,206,Southbound @ 814 Brock Street,0,
302,302,,,,207:1,,2,-78.945274,43.886977,2,207,Brock Street Southbound @ Maple,0,
302,302,,,,208:1,,2,-78.944315,43.884855,2,208,Brock Street Southbound @ Chestnut,0,
302,302,,,,209:1,,2,-78.943838,43.883763,2,209,Brock Street Southbound @ Walnut,0,
302,302,,,,210:1,,2,-78.94316,43.882233,2,210,Brock Street Southbound @ Mary,0,
302,302,,,,211:1,,2,-78.942282,43.87995200000001,1,211,Brock Street Southbound @ Dundas,0,
302,302,,,,212:1,,2,-78.941093,43.876878,2,212,Brock Street Southbound @ Gilbert,0,
302,302,,,,213:1,,2,-78.940579,43.87582900000001,2,213,Brock Street Southbound @ Ontario,0,
302,302,,,,214:1,,2,-78.939683,43.873776,2,214,Brock Street Southbound @ Trent,0,
302,302,,,,215:1,,2,-78.93923599999998,43.872757,2,215,Southbound @ 786 Brock Street,0,
302,302,,,,36281,,2,-78.94713299999998,43.956227,2,3628,Anderson Southbound @ Winchester,0,
302,302,,,,36291,,2,-78.94601,43.95373,2,3629,Anderson Southbound @ Duggan,0,
302,302,,,,36191,,2,-78.94585499999998,43.953911,2,3619,Anderson Northbound @ Settlers,0,
302,302,,,,497:1,,2,-78.946403,43.956651,2,497,Winchester Eastbound @ Anderson,0,
319,319,,,,14:1,,1,-78.942227,43.904811,2,14,Garden Northbound @ Dryden,0,
319,319,,,,15:1,,1,-78.943865,43.908512,2,15,Garden Northbound @ Willowbrook,0,
319,319,,,,16:1,,1,-78.944674,43.91038600000001,2,16,Garden Northbound @ Meadowglen,0,
319,319,,,,17:1,,1,-78.946197,43.91380800000001,2,17,Garden Northbound @ Cork,0,
319,319,,,,18:1,,1,-78.947352,43.91657707,2,18,Garden Northbound @ Taunton (South side stop),0,
319,319,,,,378:1,,1,-78.9468906,43.9175701,2,378,Taunton Eastbound @ Garden,0,
319,319,,,,379:1,,1,-78.943813,43.918238,2,379,Eastbound @ 379 Taunton,0,
319,319,,,,380:1,,1,-78.9406966,43.9188963,1,380,Eastbound @ 435 Taunton,0,
319,319,,,,381:1,,1,-78.9379152,43.9195199,2,381,Taunton Eastbound @ Anderson,0,
319,319,,,,245:1,,1,-78.937106,43.917513,2,245,Anderson Southbound @ Kilbride,0,
319,319,,,,246:1,,2,-78.936222,43.915405,2,246,Anderson Southbound @ Darren,0,
319,319,,,,941741,,2,-78.93509,43.91157,2,94174,Dryden westbound @ Anderson,0,
319,319,,,,941752,,2,-78.93857,43.90983,2,94175,Dryden westbound @ Fallingbrook,0,
319,319,,,,941761,,2,-78.94091,43.90666,2,94176,Dryden westbound @ Lipton,0,
319,319,,,,28:1,,1,-78.941649,43.902996,2,28,Garden Southbound @ Kenneth Hobbs,0,
319,319,,,,29:1,,1,-78.940938,43.901353,2,29,Southbound @ 3088 Garden,0,
319,319,,,,30:1,,1,-78.93967,43.898752,2,30,Garden Southbound @ Rossland (Durham Region Headquarters),0,
319,319,,,,31:1,,1,-78.938877,43.896968,2,31,Garden Southbound @ Bassett,0,
319,319,,,,941782,,2,-78.93684,43.89468,2,94178,Manning eastbound @ Garden (east side stop),0,
319,319,,,,941792,,2,-78.93021,43.89422,2,94179,Manning eastbound @ Ribblesdale,0,
319,319,,,,255:1,,1,-78.927052,43.89454,2,255,Anderson Southbound @ Manning,0,
319,319,,,,256:1,,1,-78.926119,43.892471,2,256,Anderson Southbound @ Maplewood,0,
319,319,,,,257:1,,1,-78.925223,43.890386,2,257,Anderson Southbound @ Bradley,0,
319,319,,,,93434:1,,1,-78.924559,43.88873825000001,2,93434,Anderson Southbound @ Johnson,0,
319,319,,,,258:1,,1,-78.923657,43.886829,2,258,Anderson Southbound @ Crawforth,0,
319,319,,,,259:1,,2,-78.9229176,43.8851472,2,259,Anderson Southbound @ Dundas,0,
319,319,,,,941841,,2,-78.91967,43.87747,2,94184,Hopkins southbound @ Warren,0,
319,319,,,,941821,,2,-78.91785,43.87335,2,94182,Hopkins southbound @ Industrial,0,
319,319,,,,324:1,,2,-78.918451,43.869763,2,324,Westbound @ 106 Consumers,0,
319,319,,,,326:1,,1,-78.9237719,43.8689872,2,326,Consumers Westbound @ Cannon,0,
319,319,,,,327:1,,1,-78.9286565,43.8682969,2,327,Consumers Westbound @ Garden,0,
319,319,,,,328:1,,1,-78.931766,43.868088,2,328,Westbound @ 180 Consumers,0,
319,319,,,,329:1,,1,-78.934571,43.868016,2,329,Consumers Westbound @ Paisley,0,
319,319,,,,260:1,,2,-78.93573499999998,43.867601,2,260,Consumers Eastbound @ Paisley,0,
319,319,,,,261:1,,1,-78.93228,43.867911,2,261,Eastbound @ 187 Consumers,0,
319,319,,,,330:1,,1,-78.929162,43.86800980000001,2,330,Consumers Eastbound @ Garden,0,
319,319,,,,332:1,,1,-78.924038,43.868802,2,332,Consumers Eastbound @ Cannon,0,
319,319,,,,334:1,,1,-78.91860699999998,43.86960100000001,2,334,Eastbound @ 107 Consumers,0,
319,319,,,,941812,,2,-78.91746,43.87295000000001,2,94181,Hopkins northbound @ Industrial,0,
319,319,,,,941832,,2,-78.91947,43.87736000000001,2,94183,Hopkins northbound @ Warren,0,
319,319,,,,225:1,,1,-78.922613,43.884831,2,225,Anderson Northbound @ Dundas,0,
319,319,,,,226:1,,1,-78.923509,43.886903,2,226,Anderson Northbound @ Crawforth,0,
319,319,,,,93433:1,,1,-78.924243,43.888622,2,93433,Anderson Northbound @ Johnson,0,
319,319,,,,227:1,,1,-78.925314,43.890994,2,227,Anderson Northbound @ Frederick,0,
319,319,,,,228:1,,1,-78.925967,43.892564,2,228,Anderson Northbound @ Maplewood,0,
319,319,,,,941801,,2,-78.929653,43.894618,2,94180,Manning westbound @ Ribblesdale,0,
319,319,,,,941772,,2,-78.93749,43.89478,2,94177,Manning westbound @ Garden,0,
319,319,,,,10:1,,1,-78.93895,43.89754400000001,2,10,Garden Northbound @ Bassett (South stop),0,
319,319,,,,11:1,,1,-78.939531,43.898916,2,11,Garden Northbound @ Rossland (Durham Region Headquarters),0,
319,319,,,,12:1,,1,-78.940766,43.901464,2,12,Northbound @ 3093 Garden,0,
319,319,,,,13:1,,1,-78.941556,43.903334,2,13,Garden Northbound @ Bassett (North stop),0,
392,392,,,,42:1,,1,-78.935434,43.862229,2,42,Victoria Westbound @ Brock Street,0,
392,392,,,,43:1,,1,-78.938856,43.86147716,2,43,Victoria Westbound @ Henry,0,
392,392,,,,35841,,1,-78.94381,43.8587,1,3584,Gordon Southbound @ Whitby Shores Greenway,0,
392,392,,,,35851,,1,-78.94298,43.85673,2,3585,Southbound @ 300 Gordon (Lakeridge Health Whitby),0,
392,392,,,,57:1,,2,-78.940748,43.851303,2,57,Southbound @ 652 Gordon,0,
392,392,,,,93058:1,,1,-78.94358167,43.8506919,2,93058,Gordon Westbound @ James Govan,0,
392,392,,,,58:1,,2,-78.945576,43.848198,2,58,Ontario Shores (West Entrance),0,
392,392,,,,3588:1,,1,-78.944599,43.849206,2,3588,Ontario Shores (East Entrance),0,
392,392,,,,93059:1,,1,-78.94366388,43.85061079,2,93059,Gordon Eastbound @ James Govan,0,
392,392,,,,59:1,,1,-78.94083999999998,43.851033,2,59,Eastbound @ 701 Gordon,0,
392,392,,,,601,,1,-78.94271,43.85644,2,60,Northbound @ 300 Gordon (Lakeridge Health Whitby),0,
392,392,,,,611,,1,-78.94353,43.85839,1,61,Gordon Northbound @ Whitby Shores Greenway,0,
392,392,,,,63:1,,1,-78.93984371488986,43.86111226967263,2,63,Victoria Eastbound @ Henry,0,
392,392,,,,64:1,,1,-78.937137,43.861691,2,64,Victoria Eastbound @ Charles,0,
403,403,,,,2585:1,,1,-78.886365,43.87066200000001,2,2585,Oshawa Station,0,
403,403,,,,262:1,,1,-78.900295,43.86729177,1,262,Westbound @ 1716 Victoria,0,
403,403,,,,318:1,,2,-78.902447,43.86262,2,318,Thickson Southbound @ Tricont,0,
403,403,,,,319:1,,2,-78.899945,43.858818,2,319,Wentworth Eastbound @ Thickson,0,
403,403,,,,320:1,,2,-78.897457,43.859341,2,320,Wentworth Eastbound @ McEwen,0,
403,403,,,,93243:1,,2,-78.89472,43.85995852,2,93243,Wentworth Eastbound @ Forbes,0,
403,403,,,,93463:1,,2,-78.8863301,43.8617546,2,93463,Wentworth Eastbound @ Boundary,0,
403,403,,,,93465:1,,1,-78.881117,43.86294500000001,2,93465,Wentworth Eastbound @ Thornton,0,
403,403,,,,93459:1,,1,-78.879187,43.85915911,2,93459,Thornton Southbound @ Skae,0,
403,403,,,,93461:1,,1,-78.878845,43.85471414,2,93461,Thornton Southbound @ Phillip Murray,0,
403,403,,,,93246:1,,1,-78.87405,43.85485,2,93246,Phillip Murray Eastbound @ Skae,0,
403,403,,,,939:1,,1,-78.867462,43.85629200000001,2,939,Phillip Murray Eastbound @ Stevenson,0,
403,403,,,,963:1,,1,-78.85776,43.859104,2,963,Phillip Murray Eastbound @ Park,0,
403,403,,,,995:1,,1,-78.852973,43.86114517,2,995,Oxford Northbound @ Emerald,0,
403,403,,,,996:1,,1,-78.853452,43.862763,2,996,Oxford Northbound @ Dwight,0,
403,403,,,,997:1,,1,-78.852459,43.864934,2,997,Oxford Northbound @ Venus,0,
403,403,,,,998:1,,1,-78.853952,43.868849,2,998,Oxford Northbound @ Wentworth,0,
403,403,,,,999:1,,1,-78.854489,43.87028394,2,999,Glen Northbound @ Porter,0,
403,403,,,,1000:1,,1,-78.855412,43.87268331,2,1000,Glen Northbound @ Medina,0,
403,403,,,,1001:1,,1,-78.856489,43.87529628,2,1001,Northbound @ 825 Glen,0,
403,403,,,,1002:1,,1,-78.858799,43.875507,2,1002,Malaga Westbound @ Oxford,0,
403,403,,,,1003:1,,1,-78.862502,43.874698,1,1003,Malaga Westbound @ Park,0,
403,403,,,,937081,,2,-78.86810699999998,43.877762,2,93708,Bloor Westbound @ Park,0,
403,403,,,,3587:1,,2,-78.868386,43.881571,2,3587,Park Northbound @ Hillside,0,
403,403,,,,1132:1,,2,-78.869767,43.887357,2,1132,Park Northbound @ Quebec,0,
403,403,,,,1276:1,,1,-78.87118169999998,43.8881292,2,1276,Gibb Westbound @ Montrave,0,
403,403,,,,1277:1,,1,-78.874471,43.887291,2,1277,Gibb Westbound @ Grenfell,0,
403,403,,,,1278:1,,1,-78.87697,43.88680200000001,2,1278,Westbound @ 450 Gibb,0,
403,403,,,,2595:1,,1,-78.877279,43.88916900000001,2,2595,Oshawa Centre Terminal,0,
403,403,,,,1287:1,,1,-78.876312,43.886764,2,1287,Eastbound @ 431 Gibb,0,
403,403,,,,1288:1,,1,-78.874165,43.887267,2,1288,Gibb Eastbound @ Grenfell,0,
403,403,,,,1289:1,,1,-78.87204699999998,43.88775900000001,2,1289,Gibb Eastbound @ Montrave,0,
403,403,,,,1362:1,,2,-78.869855,43.88699031,2,1362,Park Southbound @ Marland,0,
403,403,,,,3586:1,,2,-78.868142,43.882051,2,3586,Park Southbound @ Hillside,0,
403,403,,,,937071,,2,-78.866602,43.877851,2,93707,Bloor Eastbound @ Park,0,
403,403,,,,1014:1,,2,-78.863301,43.87443,2,1014,Malaga Eastbound @ Park,0,
403,403,,,,1015:1,,1,-78.86054799999998,43.875032,2,1015,Malaga Eastbound @ Oxford (West side stop),0,
403,403,,,,1016:1,,1,-78.857982,43.875586,2,1016,Malaga Eastbound @ Oxford (East side stop),0,
403,403,,,,1017:1,,1,-78.85656,43.87507063000001,2,1017,Southbound @ 830 Glen,0,
403,403,,,,1018:1,,1,-78.855636,43.87281378,2,1018,Glen Southbound @ Medina,0,
403,403,,,,1019:1,,1,-78.854967,43.871258,2,1019,Glen Southbound @ Porter,0,
403,403,,,,990:1,,1,-78.853995,43.868657,2,990,Oxford Southbound @ Calvert,0,
403,403,,,,991:1,,1,-78.853571,43.867666,2,991,Oxford Southbound @ Chandos,0,
403,403,,,,992:1,,1,-78.8526593,43.86448,2,992,Oxford Southbound @ Kinmount,0,
403,403,,,,993:1,,1,-78.85359099999998,43.862572,2,993,Oxford Southbound @ Dwight,0,
403,403,,,,994:1,,1,-78.85287099999998,43.86046419,2,994,Oxford Southbound @ Phillip Murray,0,
403,403,,,,970:1,,1,-78.857453,43.85932600000001,2,970,Phillip Murray Westbound @ Park,0,
403,403,,,,973:1,,2,-78.874097,43.85493300000001,2,973,Phillip Murray Westbound @ Skae,0,
403,403,,,,93462:1,,2,-78.878558,43.85448188,2,93462,Phillip Murray Westbound @ Thornton,0,
403,403,,,,93460:1,,2,-78.879086,43.85911722,2,93460,Thornton Northbound @ Skae,0,
403,403,,,,93464:1,,2,-78.881491,43.863046,2,93464,Wentworth Westbound @ Thornton,0,
403,403,,,,93527:1,,2,-78.885536,43.86224717000001,2,93527,Wentworth Westbound @ Boundary (East side stop),0,
403,403,,,,265:1,,2,-78.88778,43.86166688,2,265,Wentworth Westbound @ Boundary (West side stop),0,
403,403,,,,266:1,,2,-78.89276099999998,43.860563,2,266,Wentworth Westbound @ Forbes,0,
403,403,,,,267:1,,2,-78.897536,43.859508,2,267,Wentworth Westbound @ Scotia,0,
403,403,,,,268:1,,2,-78.899876,43.859031,2,268,Wentworth Westbound @ Thickson,0,
403,403,,,,269:1,,2,-78.902289,43.86266,2,269,Thickson Northbound @ Tricont,0,
403,403,,,,270:1,,2,-78.903392,43.865547,2,270,Thickson Northbound @ Victoria,0,
403,403,,,,1052:1,,2,-78.899322,43.867405,1,1052,Eastbound @ 1733 Victoria,0,
403,403,,,,93179:1,,2,-78.89140999999998,43.87183948,2,93179,Eastbound @ 933 Bloor Street West,0,
403,403,,,,984:1,,1,-78.85286,43.857059,2,984,Lakeview Westbound @ Lakemount,0,
403,403,,,,985:1,,1,-78.855793,43.856405,2,985,Lakeview Westbound @ Park,0,
405,405,,,,812:1,,1,-78.848752,43.942102,1,812,Harmony Terminal,0,
405,405,,,,93036:1,,1,-78.85177539999998,43.94528721,2,93036,Harmony Northbound @ Coldstream,0,
405,405,,,,3517:1,,2,-78.854544,43.95118200000001,2,3517,Harmony Northbound @ Greenhill,0,
405,405,,,,93353:1,,2,-78.86148,43.955816,2,93353,Conlin Westbound @ Riverton,0,
405,405,,,,93355:1,,2,-78.866753,43.953884,2,93355,Wilson Southbound @ Conlin,0,
405,405,,,,93358:1,,1,-78.86470199999998,43.94918809,2,93358,Wilson Southbound @ Greenhill,0,
405,405,,,,90054:1,,1,-78.862892,43.945316,2,90054,Wilson Southbound @ Coldstream,0,
405,405,,,,90070:1,,1,-78.861823,43.943005,2,90070,Wilson Southbound @ Clearsky,0,
405,405,,,,90055:1,,1,-78.860584,43.94023700000001,2,90055,Wilson Southbound @ Larry,0,
405,405,,,,90056:1,,1,-78.859533,43.937886,1,90056,Wilson Southbound @ Taunton,0,
405,405,,,,90057:1,,1,-78.85862899999998,43.935634,2,90057,Southbound @ 1310 Wilson,0,
405,405,,,,90083:1,,1,-78.857147,43.932287,2,90083,Wilson Southbound @ Beatrice,0,
405,405,,,,3344:1,,2,-78.855818,43.92931,2,3344,Wilson Southbound @ Tiffany,0,
405,405,,,,3179:1,,1,-78.854372,43.926015,2,3179,Wilson Southbound @ Attersley,0,
405,405,,,,3342:1,,2,-78.85286499999998,43.922588,2,3342,Wilson Southbound @ Terrace,0,
405,405,,,,90066:1,,1,-78.851912,43.920439,1,90066,Wilson Southbound @ Rossland,0,
405,405,,,,90064:1,,1,-78.849962,43.915645,2,90064,Wilson Southbound @ Oakwood,0,
405,405,,,,3125:1,,2,-78.84907667343516,43.91355036312938,2,3125,Wilson Southbound @ Hillcroft,0,
405,405,,,,3123:1,,2,-78.847296,43.909548,2,3123,Wilson Southbound @ Adelaide,0,
405,405,,,,749:1,,1,-78.848885,43.908884,2,749,Adelaide Westbound @ Juliana,0,
405,405,,,,750:1,,1,-78.852635,43.907641,2,750,Adelaide Westbound @ Central Park,0,
405,405,,,,751:1,,1,-78.85562299999998,43.906731,2,751,Adelaide Westbound @ Ritson,0,
405,405,,,,752:1,,1,-78.859632,43.905788,2,752,Adelaide Westbound @ Division,0,
405,405,,,,753:1,,1,-78.864441,43.90463900000001,2,753,Adelaide Westbound @ Kendal,0,
405,405,,,,754:1,,1,-78.866193,43.90394,2,754,Adelaide Westbound @ Simcoe,0,
405,405,,,,755:1,,1,-78.870472,43.902554,2,755,Adelaide Westbound @ Frances,0,
405,405,,,,93377:1,,1,-78.875818,43.90133500000001,2,93377,Adelaide Westbound @ Park,0,
405,405,,,,93379:1,,1,-78.880768,43.900141,2,93379,Adelaide Westbound @ Gibbons,0,
405,405,,,,935211,,2,-78.883283,43.899535,2,93521,Adelaide Westbound @ Fernhill,0,
405,405,,,,940991,,2,-78.885722,43.899015,2,94099,Adelaide Westbound @ Stevenson,0,
405,405,,,,940911,,2,-78.890673,43.89807600000001,2,94091,Adelaide Westbound @ Waverley,0,
405,405,,,,559:1,,1,-78.895698,43.89628,2,559,Thornton Southbound @ Adelaide (South side stop),0,
405,405,,,,560:1,,1,-78.894515,43.89355735,2,560,Thornton Southbound @ Castlegrove,0,
405,405,,,,561:1,,1,-78.8936936,43.8915529,2,561,Thornton Southbound @ King,0,
405,405,,,,93024:1,,1,-78.892506,43.88908,2,93024,Thornton Southbound @ Monaghan (Trent University Oshawa),0,
405,405,,,,93188:1,,2,-78.891874,43.88768000000001,2,93188,Thornton Southbound @ Arklow,0,
405,405,,,,563:1,,1,-78.891096,43.886025,2,563,Thornton Southbound @ Donegal,0,
405,405,,,,1283:1,,1,-78.88744699999998,43.884355,2,1283,Gibb Eastbound @ Vancouver,0,
405,405,,,,1284:1,,1,-78.884308,43.885076,2,1284,Gibb Eastbound @ Waverly,0,
405,405,,,,1285:1,,1,-78.88051299999998,43.885932,2,1285,Gibb Eastbound @ Stevenson (West side stop),0,
405,405,,,,1286:1,,1,-78.87870599999998,43.88625932,2,1286,Gibb Eastbound @ Stevenson (East side stop),0,
405,405,,,,93054:1,,1,-78.8793725,43.8863306,2,93054,Gibb Westbound @ Stevenson (East side stop),0,
405,405,,,,1280:1,,1,-78.880912,43.88595200000001,2,1280,Gibb Westbound @ Stevenson (West side stop),0,
405,405,,,,1281:1,,1,-78.884574,43.885118,2,1281,Gibb Westbound @ Waverly,0,
405,405,,,,1282:1,,1,-78.887244,43.884493,2,1282,Gibb Westbound @ Vancouver,0,
405,405,,,,539:1,,1,-78.890887,43.885866,2,539,Thornton Northbound @ Donegal,0,
405,405,,,,541:1,,2,-78.892334,43.889148,2,541,Thornton Northbound @ Monaghan (Trent University Oshawa),0,
405,405,,,,542:1,,1,-78.8933631,43.8913759,2,542,Thornton Northbound @ King,0,
405,405,,,,543:1,,1,-78.894577,43.89427409000001,2,543,Thornton Northbound @ Castlegrove,0,
405,405,,,,544:1,,1,-78.895259,43.895745,2,544,Northbound @ 185 Thornton,0,
405,405,,,,940921,,2,-78.891092,43.89786500000001,2,94092,Adelaide Eastbound @ Waverley,0,
405,405,,,,940961,,2,-78.886166,43.89873200000001,2,94096,Adelaide Eastbound @ Stevenson,0,
405,405,,,,940971,,1,-78.881242,43.899898,2,94097,Adelaide Eastbound @ Gibbons,0,
405,405,,,,940981,,2,-78.876259,43.90105,2,94098,Adelaide Eastbound @ Park,0,
405,405,,,,719:1,,1,-78.870727,43.902369,2,719,Adelaide Eastbound @ Kaiser,0,
405,405,,,,720:1,,1,-78.866944,43.903236,2,720,Adelaide Eastbound @ Simcoe,0,
405,405,,,,721:1,,1,-78.864226,43.904587,2,721,Adelaide Eastbound @ Kendal,0,
405,405,,,,722:1,,1,-78.859663,43.905681,2,722,Adelaide Eastbound @ Division,0,
405,405,,,,93236:1,,1,-78.85589,43.906513,2,93236,Adelaide Eastbound @ Ritson,0,
405,405,,,,724:1,,1,-78.852306,43.90771,2,724,Adelaide Eastbound @ Central Park,0,
405,405,,,,725:1,,1,-78.848831,43.908797,2,725,Adelaide Eastbound @ Juliana,0,
405,405,,,,3126:1,,1,-78.848778,43.913236,2,3126,Wilson Northbound @ Hillcroft,0,
405,405,,,,90063:1,,1,-78.849728,43.915302,2,90063,Wilson Northbound @ Cavendish,0,
405,405,,,,90065:1,,1,-78.8512777,43.9190034,1,90065,Wilson Northbound @ Rossland,0,
405,405,,,,3341:1,,2,-78.852739,43.9226613,2,3341,Wilson Northbound @ Terrace,0,
405,405,,,,3178:1,,1,-78.854111,43.925753,2,3178,Wilson Northbound @ Attersley,0,
405,405,,,,3343:1,,2,-78.8556,43.929131,2,3343,Wilson Northbound @ Tiffany,0,
405,405,,,,93362:1,,1,-78.857028,43.932443,2,93362,Wilson Northbound @ Beatrice,0,
405,405,,,,93361:1,,1,-78.85898,43.936911,1,93361,Wilson Northbound @ Taunton,0,
405,405,,,,93360:1,,1,-78.860169,43.939709,2,93360,Wilson Northbound @ Blackwood,0,
405,405,,,,93359:1,,1,-78.86174,43.943242,2,93359,Wilson Northbound @ Clearsky,0,
405,405,,,,93357:1,,1,-78.862774,43.9454436,2,93357,Wilson Northbound @ Coldstream,0,
405,405,,,,90045:1,,1,-78.86431399999998,43.94900213,2,90045,Wilson Northbound @ Greenhill,0,
405,405,,,,93356:1,,2,-78.866713,43.954223,2,93356,Wilson Northbound @ Conlin,0,
405,405,,,,93354:1,,2,-78.861844,43.955617,2,93354,Conlin Eastbound @ Riverton,0,
405,405,,,,3132:1,,2,-78.857426,43.95665300000001,2,3132,Conlin Eastbound @ Harmony,0,
405,405,,,,3518:1,,2,-78.855046,43.951873,2,3518,Harmony Southbound @ Greenhill,0,
405,405,,,,93425:1,,1,-78.8514735,43.9437266,2,93425,Harmony Southbound @ Coldstream,0,
405,405,,,,817:1,,1,-78.85074299999998,43.94750100000001,2,817,Delpark Homes Centre,0,
407,407,,,,3114:1,,2,-78.82937099999998,43.882025,1,3114,Farewell Northbound @ Raleigh,0,
407,407,,,,1083:1,,1,-78.83223599999998,43.885798,2,1083,Bloor Westbound @ Farewell,0,
407,407,,,,1084:1,,1,-78.83441,43.885282,2,1084,Bloor Westbound @ Holland,0,
407,407,,,,3262:1,,2,-78.83800599999998,43.887869,2,3262,Dean Westbound @ Wilson,0,
407,407,,,,3263:1,,2,-78.841289,43.888306,2,3263,Dean Northbound @ Sedan,0,
407,407,,,,93183:1,,1,-78.844227,43.88834,2,93183,Dean Westbound @ Normandy,0,
407,407,,,,937651,,2,-78.84746939310502,43.88649853166958,2,93765,Dean Westbound @ Ritson,0,
407,407,,,,937121,,2,-78.849532,43.890786,2,93712,Ritson Northbound @ Olive,0,
407,407,,,,937111,,2,-78.851457,43.895036,2,93711,Ritson Northbound @ Eulalie,0,
407,407,,,,937101,,2,-78.853139,43.898724,2,93710,Ritson Northbound @ Athol,0,
407,407,,,,937001,,1,-78.853953,43.900361,2,93700,Ritson Northbound @ Bond,0,
407,407,,,,3118:1,,2,-78.854417,43.901499,2,3118,Ritson Northbound @ Richmond,0,
407,407,,,,3116:1,,2,-78.855635,43.904205,2,3116,Northbound @ 205 Ritson,0,
407,407,,,,879:1,,1,-78.856466,43.906068,2,879,Ritson Northbound @ Adelaide,0,
407,407,,,,881:1,,1,-78.85972599999998,43.913421,2,881,Ritson Northbound @ Hillcroft,0,
407,407,,,,882:1,,1,-78.860494,43.915191,2,882,Ritson Northbound @ Oshawa Boulevard (South stop),0,
407,407,,,,883:1,,1,-78.86149899999998,43.917753,1,883,Ritson Northbound @ Rossland,0,
407,407,,,,884:1,,1,-78.86217499999998,43.919499,2,884,Ritson Northbound @ Tulip,0,
407,407,,,,885:1,,1,-78.862948,43.92126249,2,885,Ritson Northbound @ Darcy,0,
407,407,,,,886:1,,1,-78.863791,43.92314600000001,2,886,Northbound @ 881 Ritson,0,
407,407,,,,887:1,,1,-78.864607,43.925002,2,887,Ritson Northbound @ Highgate,0,
407,407,,,,888:1,,1,-78.865643,43.927335,2,888,Ritson Northbound @ Oshawa Boulevard (North stop),0,
407,407,,,,889:1,,1,-78.866347,43.928913,2,889,Ritson Northbound @ Beatrice (South stop),0,
407,407,,,,1371:1,,1,-78.869207,43.929548,2,1371,Beatrice Westbound @ Sycamore,0,
407,407,,,,1372:1,,1,-78.872625,43.926963,2,1372,Beatrice Westbound @ Mary,0,
407,407,,,,1353:1,,1,-78.873907,43.928625,2,1353,Northbound @ 1185 Mary,0,
407,407,,,,1354:1,,1,-78.87249799999998,43.931137,2,1354,Nonquon Northbound @ Mary,0,
407,407,,,,1355:1,,1,-78.87221,43.93247800000001,2,1355,Mary Northbound @ Nonquon,0,
407,407,,,,1356:1,,1,-78.872776,43.93385593,2,1356,Mary Northbound @ Taunton,0,
407,407,,,,93531:1,,2,-78.87353899999998,43.93546700000001,2,93531,Mary Northbound @ Ormond,0,
407,407,,,,1387:1,,1,-78.871436,43.936751,2,1387,Northbound @ 227 Ormond,0,
407,407,,,,1388:1,,1,-78.870628,43.937781,2,1388,Ormond Eastbound @ Ritson,0,
407,407,,,,3552:1,,2,-78.87249,43.94296,2,3552,Ritson Northbound @ Luple,0,
407,407,,,,93426:1,,1,-78.872175,43.944385,2,93426,Coldstream Eastbound @ Ritson,0,
407,407,,,,90051:1,,1,-78.8686743,43.9451727,2,90051,Coldstream Eastbound @ Whitestone,0,
407,407,,,,90053:1,,1,-78.865092,43.945539,2,90053,Coldstream Eastbound @ Ormond,0,
407,407,,,,93493:1,,1,-78.86329499999998,43.945803,2,93493,Coldstream Eastbound @ Wilson,0,
407,407,,,,93424:1,,1,-78.8563396,43.94497350000001,2,93424,Coldstream Eastbound @ Clearbrook,0,
407,407,,,,90041:1,,1,-78.852735,43.94435514,2,90041,Coldstream Westbound @ Harmony (West side stop),0,
407,407,,,,90042:1,,1,-78.856035,43.944835,2,90042,Coldstream Westbound @ Pennel,0,
407,407,,,,90043:1,,1,-78.857899,43.94557611,2,90043,Coldstream Westbound @ Clearbrook,0,
407,407,,,,90044:1,,1,-78.862296,43.946166,2,90044,Coldstream Westbound @ Wilson,0,
407,407,,,,90052:1,,1,-78.866106,43.94571,2,90052,Coldstream Westbound @ Ormond,0,
407,407,,,,910:1,,1,-78.868727,43.945257,2,910,Coldstream Westbound @ Northfield,0,
407,407,,,,90050:1,,1,-78.872409,43.944435,2,90050,Coldstream Westbound @ Ritson,0,
407,407,,,,3551:1,,2,-78.87257,43.94279,2,3551,Ritson Southbound @ Luple,0,
407,407,,,,859:1,,1,-78.869981,43.937122,2,859,Ritson Southbound @ Ormond,0,
407,407,,,,861:1,,1,-78.868973,43.934373,1,861,Ritson Southbound @ Taunton,0,
407,407,,,,862:1,,1,-78.868262,43.932714,2,862,Ritson Southbound @ Pentland,0,
407,407,,,,863:1,,1,-78.866915,43.929724,2,863,Ritson Southbound @ Beatrice,0,
407,407,,,,864:1,,1,-78.865798,43.927268,2,864,Ritson Southbound @ Oshawa Boulevard (North stop),0,
407,407,,,,865:1,,1,-78.864766,43.92503569,2,865,Ritson Southbound @ Highgate,0,
407,407,,,,866:1,,1,-78.864075,43.923364,2,866,Ritson Southbound @ Wildflower,0,
407,407,,,,867:1,,1,-78.863175,43.92128128,2,867,Ritson Southbound @ Darcy,0,
407,407,,,,868:1,,1,-78.861715,43.917545,1,868,Ritson Southbound @ Rossland,0,
407,407,,,,869:1,,1,-78.860639,43.91508300000001,2,869,Ritson Southbound @ Oshawa Boulevard (South stop),0,
407,407,,,,870:1,,1,-78.859886,43.913394,2,870,Ritson Southbound @ Hillcroft,0,
407,407,,,,872:1,,2,-78.856969,43.906697,2,872,Ritson Southbound @ Adelaide,0,
407,407,,,,3115:1,,2,-78.8557913,43.9039406,2,3115,Southbound @ 206 Ritson,0,
407,407,,,,937181,,2,-78.855132,43.902586,2,93718,Ritson Southbound @ William,0,
407,407,,,,3117:1,,2,-78.854433,43.901042,2,3117,Ritson Southbound @ Bond,0,
407,407,,,,937131,,2,-78.853486,43.898959,2,93713,Ritson Southbound @ Athol,0,
407,407,,,,937141,,2,-78.85178,43.89525600000001,2,93714,Ritson Southbound @ Eulalie,0,
407,407,,,,937151,,2,-78.849841,43.891023,2,93715,Ritson Southbound @ Olive,0,
407,407,,,,940701,,2,-78.8479,43.88665000000001,2,94070,Ritson Southbound @ McNaughton,0,
407,407,,,,3109:1,,2,-78.84632,43.883063,2,3109,Ritson Southbound @ Bloor,0,
407,407,,,,3110:1,,1,-78.844802,43.87956,2,3110,Ritson Southbound @ Conant,0,
407,407,,,,3111:1,,1,-78.844014,43.877689,2,3111,Ritson Southbound @ Wolfe,0,
407,407,,,,3566:1,,2,-78.841977,43.87551,2,3566,Wentworth Eastbound @ Ritson,0,
407,407,,,,3564:1,,2,-78.838196,43.876379,2,3564,Wentworth Eastbound @ Nelson,0,
407,407,,,,3269:1,,2,-78.866844,43.930147,2,3269,Ritson Northbound @ Beatrice (North stop),0,
407,407,,,,3270:1,,1,-78.867734,43.93206,2,3270,Ritson Northbound @ Pentland,0,
407,407,,,,3271:1,,1,-78.868826,43.934727,1,3271,Ritson Northbound @ Taunton,0,
407,407,,,,892:1,,1,-78.870106,43.93767900000001,2,892,Ritson Northbound @ Ormond,0,
407,407,,,,93000:1,,1,-78.827646,43.879227,2,93000,Colonel Sam Eastbound @ Farewell,0,
407,407,,,,1101:1,,1,-78.807633,43.878222,2,1101,Eastbound @ 1189 Colonel Sam,0,
407,407,,,,90014:1,,1,-78.804159,43.876615,2,90014,Eastbound @ 1908 Colonel Sam,0,
407,407,,,,93189:1,,1,-78.821307,43.880828,2,93189,Westbound @ 944 Colonel Sam,0,
407,407,,,,3113:1,,2,-78.82801,43.87933000000001,2,3113,Colonel Sam Westbound @ Farewell,0,
409,409,,,,537:1,,1,-78.891938,43.8833,2,537,Gibb Westbound @ Tipperary,0,
409,409,,,,343:1,,1,-78.8990682,43.88010220000001,2,343,Kendalwood Northbound @ Sawdon,0,
409,409,,,,344:1,,1,-78.8998565,43.8818189,2,344,Kendalwood Northbound @ Broadview,0,
409,409,,,,345:1,,1,-78.9014091,43.88518710000001,2,345,Kendalwood Northbound @ Northview,0,
409,409,,,,3416:1,,1,-78.903084,43.88915200000001,2,3416,Garrard Northbound @ Dundas,0,
409,409,,,,346:1,,1,-78.904566,43.892441,2,346,Garrard Northbound @ Burnage,0,
409,409,,,,348:1,,1,-78.906543,43.896954,2,348,Garrard Northbound @ Manning,0,
409,409,,,,349:1,,1,-78.907678,43.899542,2,349,Garrard Northbound @ Forest,0,
409,409,,,,350:1,,1,-78.908666,43.901785,2,350,Garrard Northbound @ Westwood,0,
409,409,,,,351:1,,1,-78.909749,43.904252,2,351,Garrard Northbound @ Dymond,0,
409,409,,,,352:1,,1,-78.910552,43.906128,1,352,Garrard Northbound @ Rossland,0,
409,409,,,,353:1,,1,-78.911592,43.909057,2,353,Garrard Northbound @ Pogson,0,
409,409,,,,354:1,,1,-78.912559,43.91124,2,354,Garrard Northbound @ Donald Wilson,0,
409,409,,,,355:1,,1,-78.913659,43.913729,2,355,Garrard Northbound @ Weldon,0,
409,409,,,,356:1,,2,-78.914815,43.916354,2,356,GARRARD @ DRYDEN n ns,0,
409,409,,,,3420:1,,2,-78.91904,43.91571,2,3420,Dryden Westbound @ Bakerville,0,
409,409,,,,3421:1,,2,-78.92186,43.91489,2,3421,Dryden Westbound @ Waller,0,
409,409,,,,3409:1,,1,-78.92400139999998,43.9143679,2,3409,Dryden Westbound @ Thickson,0,
409,409,,,,290:1,,1,-78.925599,43.916314,2,290,Thickson Northbound @ Bach,0,
409,409,,,,292:1,,2,-78.9267847,43.919129,2,292,THICKSON @ CATHEDRAL n ns,0,
409,409,,,,383:1,,1,-78.926841,43.921996,2,383,Taunton Eastbound @ Thickson,0,
409,409,,,,445:1,,1,-78.90375299999998,43.885687,2,445,Nichol Westbound @ Kirby,0,
409,409,,,,446:1,,1,-78.90648,43.884234,2,446,Nichol Westbound @ Springwood,0,
409,409,,,,447:1,,1,-78.909845,43.882875,2,447,Nichol Westbound @ Jubilee,0,
409,409,,,,448:1,,1,-78.91251099999998,43.882509,2,448,Nichol Westbound @ Thickson,0,
409,409,,,,449:1,,1,-78.91447599999998,43.88398140000001,2,449,Northbound @ 155 Glen Hill,0,
409,409,,,,451:1,,1,-78.911815,43.886613,1,451,Dundas Eastbound @ Thickson,0,
409,409,,,,452:1,,1,-78.909422,43.887178,2,452,Dundas Eastbound @ Kathleen,0,
409,409,,,,384:1,,1,-78.921678,43.923214,2,384,Taunton Eastbound @ Tom Edwards,0,
409,409,,,,293:1,,1,-78.917972,43.92320500000001,2,293,Garrard Southbound @ Griffen,0,
409,409,,,,294:1,,1,-78.917227,43.921498,2,294,Garrard Southbound @ Shore,0,
409,409,,,,295:1,,1,-78.91538799999998,43.917352,2,295,Garrard Southbound @ Dryden,0,
409,409,,,,296:1,,1,-78.914092,43.914403,2,296,Garrard Southbound @ Rolling Acres,0,
409,409,,,,297:1,,1,-78.9130924,43.9121379,2,297,Garrard Southbound @ Donald Wilson,0,
409,409,,,,298:1,,1,-78.912156,43.910044,2,298,Garrard Southbound @ Fencerow,0,
409,409,,,,299:1,,1,-78.911338,43.908192,2,299,Garrard Southbound @ Burgundy,0,
409,409,,,,488:1,,1,-78.9069581,43.9072446,2,488,Rossland Eastbound @ William Davidson,0,
409,409,,,,565:1,,1,-78.901066,43.908465,2,565,Rossland Eastbound @ Thornton,0,
409,409,,,,566:1,,1,-78.896541,43.909431,2,566,Rossland Eastbound @ Waverly,0,
409,409,,,,567:1,,1,-78.891435,43.910505,1,567,Rossland Eastbound @ Stevenson,0,
409,409,,,,952:1,,1,-78.889543,43.90700600000001,2,952,Stevenson Southbound @ Marion,0,
409,409,,,,93455:1,,1,-78.88820699999998,43.903822,2,93455,Stevenson Southbound @ Annapolis,0,
409,409,,,,93376:1,,1,-78.887003,43.90107504,2,93376,Stevenson Southbound @ Woodcrest,0,
409,409,,,,93429:1,,1,-78.88614699999998,43.89911137,2,93429,Stevenson Southbound @ Adelaide,0,
409,409,,,,93439:1,,1,-78.885693,43.898086,2,93439,Stevenson Southbound @ Madison,0,
409,409,,,,93551:1,,1,-78.884573,43.89565665,2,93551,Stevenson Southbound @ Creighton,0,
409,409,,,,953:1,,1,-78.883644,43.893374,2,953,Stevenson Southbound @ King,0,
409,409,,,,955:1,,1,-78.882155,43.89017014,2,955,Southbound @ 104 Stevenson,0,
410,410,,,,90038:1,,1,-78.8507694,43.944594,2,90038,Coldstream Eastbound @ Harmony,0,
410,410,,,,941941,,2,-78.846137,43.945712,2,94194,Coldstream Eastbound @ 1224 Coldstream,0,
410,410,,,,90080:1,,1,-78.844471,43.9461252,2,90080,Eastbound @ 1321 Coldstream,0,
410,410,,,,799:1,,1,-78.84174,43.946346,2,799,Grandview Southbound @ Appleby,0,
410,410,,,,800:1,,1,-78.84021,43.94284300000001,2,800,Grandview Southbound @ Park Ridge,0,
410,410,,,,801:1,,1,-78.83936199999998,43.94091,2,801,Grandview Southbound @ Taunton,0,
410,410,,,,802:1,,1,-78.83840499999998,43.93880915,2,802,Grandview Southbound @ Glenbourne,0,
410,410,,,,803:1,,1,-78.837723,43.937222,2,803,Grandview Southbound @ Ridgemount,0,
410,410,,,,804:1,,1,-78.83631699999998,43.934055,2,804,Grandview Southbound @ Summitview,0,
410,410,,,,805:1,,1,-78.834244,43.929324,2,805,Grandview Southbound @ Rathburn,0,
410,410,,,,806:1,,1,-78.836264,43.92785527,2,806,Grandview Southbound @ Grandlea,0,
410,410,,,,807:1,,1,-78.83848999999998,43.92730266,2,807,Grandview Southbound @ Lindsay,0,
410,410,,,,808:1,,1,-78.83938999999998,43.92517,2,808,Grandview Southbound @ Corbetts,0,
410,410,,,,809:1,,1,-78.8386276,43.9229815,2,809,Grandview Southbound @ Rossland,0,
410,410,,,,585:1,,1,-78.8401886,43.9223567,2,585,Rossland Westbound @ Harmony,0,
410,410,,,,93432:1,,1,-78.840044,43.91756800000001,2,93432,Harmony Southbound @ Glebe,0,
410,410,,,,1145:1,,1,-78.83798,43.91292,1,1145,Harmony Southbound @ Adelaide,0,
410,410,,,,1146:1,,1,-78.836235,43.90900100000001,2,1146,Harmony Southbound @ Eastbourne,0,
410,410,,,,1147:1,,1,-78.835614,43.907603,2,1147,Harmony Southbound @ Regent,0,
410,410,,,,1148:1,,1,-78.83438599999998,43.904711,1,1148,Harmony Southbound @ King,0,
410,410,,,,1149:1,,1,-78.833634,43.90330500000001,2,1149,Harmony Southbound @ Palace,0,
410,410,,,,1150:1,,1,-78.83266999999998,43.901176,2,1150,Harmony Southbound @ Hoskin,0,
410,410,,,,1151:1,,2,-78.831854,43.899357,2,1151,Southbound @ 188 Harmony,0,
410,410,,,,1152:1,,1,-78.830782,43.896955,2,1152,Harmony Southbound @ Florell,0,
410,410,,,,36361,,2,-78.830067,43.895486,1,3636,Harmony Southbound @ Olive,0,
410,410,,,,1257:1,,1,-78.83126799999998,43.89510700000001,1,1257,Olive Westbound @ Elmridge,0,
410,410,,,,1258:1,,1,-78.834343,43.894441,2,1258,Olive Westbound @ Poplar,0,
410,410,,,,1259:1,,1,-78.836928,43.89386600000001,2,1259,Olive Westbound @ Baldwin,0,
410,410,,,,1260:1,,1,-78.839031,43.893383,2,1260,Olive Westbound @ Wilson,0,
410,410,,,,1261:1,,1,-78.841487,43.892828,2,1261,Olive Westbound @ Highland,0,
410,410,,,,1262:1,,1,-78.842817,43.892535,2,1262,Olive Westbound @ Lasalle,0,
410,410,,,,1263:1,,1,-78.846057,43.891779,2,1263,Olive Westbound @ Verdun,0,
410,410,,,,1264:1,,2,-78.849481,43.890989,2,1264,Olive Westbound @ Ritson,0,
410,410,,,,1265:1,,2,-78.851768,43.89046,2,1265,Olive Westbound @ Drew,0,
410,410,,,,1266:1,,1,-78.855284,43.889641,2,1266,Olive Westbound @ Court,0,
410,410,,,,2604:1,,1,-78.8622203,43.89014370000001,2,2604,Gibb Westbound @ Centre,0,
410,410,,,,3227:1,,2,-78.866981,43.889102,2,3227,Gibb Westbound @ Nassau,0,
410,410,,,,3228:1,,2,-78.8675047,43.888873,2,3228,Gibb Eastbound @ Nassau,0,
410,410,,,,941511,,2,-78.86271,43.88991,2,94151,Gibb Street Eastbound @ Centre Street,0,
410,410,,,,1297:1,,1,-78.855367,43.889552,2,1297,Olive Eastbound @ Court,0,
410,410,,,,1298:1,,1,-78.852093,43.890302,2,1298,Olive Eastbound @ Drew,0,
410,410,,,,1299:1,,1,-78.848202,43.891187,2,1299,Olive Eastbound @ Oshawa Boulevard,0,
410,410,,,,93027:1,,1,-78.8461123,43.8916763,2,93027,Olive Eastbound @ Verdun,0,
410,410,,,,1300:1,,1,-78.842598,43.89248,2,1300,Olive Eastbound @ Lasalle,0,
410,410,,,,1301:1,,1,-78.841125,43.892801,2,1301,Olive Eastbound @ Highland,0,
410,410,,,,1302:1,,1,-78.839043,43.893281,2,1302,Olive Eastbound @ Windsor,0,
410,410,,,,1303:1,,1,-78.836642,43.89384600000001,2,1303,Olive Eastbound @ Guelph,0,
410,410,,,,1304:1,,1,-78.834306,43.894358,2,1304,Olive Eastbound @ Poplar,0,
410,410,,,,1305:1,,1,-78.831355,43.89498,1,1305,Olive Eastbound @ Elmridge,0,
410,410,,,,1153:1,,1,-78.830938,43.89775,2,1153,Harmony Northbound @ Old Harmony,0,
410,410,,,,1154:1,,1,-78.831838,43.899752,2,1154,Harmony Northbound @ Hoskin,0,
410,410,,,,93552:1,,1,-78.832565,43.90136600000001,2,93552,Harmony Northbound @ Capri,0,
410,410,,,,1155:1,,2,-78.833706,43.90378813,2,1155,Harmony Northbound @ Palace,0,
410,410,,,,1138:1,,1,-78.834293,43.905084,1,1138,Harmony Northbound @ King,0,
410,410,,,,1139:1,,1,-78.835475,43.907681,2,1139,Harmony Northbound @ Regent,0,
410,410,,,,1140:1,,1,-78.836021,43.908962,2,1140,Harmony Northbound @ Eastbourne,0,
410,410,,,,1141:1,,2,-78.837306,43.91195900000001,1,1141,Harmony Northbound @ Adelaide,0,
410,410,,,,1142:1,,1,-78.839598,43.917231,2,1142,Northbound @ 443 Harmony,0,
410,410,,,,584:1,,2,-78.841479,43.921583,1,584,Harmony Northbound @ Rossland (South side stop),0,
410,410,,,,638:1,,1,-78.83853,43.92317417000001,2,638,Grandview Northbound @ Ripley,0,
410,410,,,,639:1,,1,-78.839057,43.92584,2,639,Grandview Northbound @ Corbetts,0,
410,410,,,,640:1,,1,-78.838302,43.92727829,2,640,Grandview Northbound @ Lindsay,0,
410,410,,,,641:1,,1,-78.836174,43.92773900000001,2,641,Grandview Northbound @ Grandlea,0,
410,410,,,,642:1,,1,-78.834149,43.928737,2,642,Grandview Northbound @ Rathburn,0,
410,410,,,,643:1,,1,-78.836078,43.933817,2,643,Grandview Northbound @ Summitview (South stop),0,
410,410,,,,644:1,,1,-78.83658,43.934956,2,644,Grandview Northbound @ Summitview (North stop),0,
410,410,,,,645:1,,1,-78.837565,43.93717,2,645,Grandview Northbound @ Ridgemount,0,
410,410,,,,646:1,,1,-78.838566,43.939427,2,646,Grandview Northbound @ Glenbourne,0,
410,410,,,,647:1,,1,-78.839225,43.94095,2,647,Grandview Northbound @ Taunton,0,
410,410,,,,648:1,,1,-78.840306,43.94367900000001,2,648,Grandview Northbound @ Park Ridge,0,
410,410,,,,649:1,,1,-78.8414887,43.9463599,2,649,Grandview Northbound @ Appleby,0,
410,410,,,,90079:1,,1,-78.844289,43.94630488,2,90079,Westbound @ 1340 Coldstream,0,
410,410,,,,941951,,2,-78.846577,43.945809,2,94195,Coldstream Westbound @ 1224 Coldstream,0,
410,410,,,,90040:1,,1,-78.8508273,43.9447913,2,90040,Coldstream Westbound @ Harmony (East side stop),0,
411,411,,,,1055:1,,1,-78.864296,43.878406,2,1055,Eastbound @ 249 Bloor,0,
411,411,,,,1056:1,,1,-78.860118,43.879381,2,1056,Bloor Eastbound @ Oxford,0,
411,411,,,,1057:1,,1,-78.856285,43.880241,2,1057,Bloor Eastbound @ Simcoe,0,
411,411,,,,1058:1,,1,-78.853414,43.880885,2,1058,Bloor Eastbound @ Albert,0,
411,411,,,,1059:1,,1,-78.8499396,43.8816337,2,1059,Bloor Eastbound @ Merritt,0,
411,411,,,,2709:1,,2,-78.846976,43.882318,2,2709,Bloor Eastbound @ Ritson,0,
411,411,,,,935971,,2,-78.832502,43.87798200000001,2,93597,Wentworth Eastbound @ Wilson,0,
411,411,,,,935981,,2,-78.829054,43.878892,2,93598,Wentworth Eastbound @ Farewell,0,
411,411,,,,1066:1,,2,-78.819826,43.888433,2,1066,Eastbound @ 887 Bloor,0,
411,411,,,,1067:1,,1,-78.813063,43.889648,2,1067,Grandview Southbound @ Bloor (South side stop),0,
411,411,,,,1068:1,,1,-78.810582,43.88767,2,1068,Grandview Southbound @ Downview,0,
411,411,,,,1069:1,,1,-78.8095866,43.88659650000001,2,1069,Grandview Southbound @ Norman,0,
411,411,,,,1070:1,,1,-78.806985,43.886499,2,1070,Grandview Eastbound @ Southdown,0,
411,411,,,,1071:1,,1,-78.80497908,43.88752003,2,1071,Townline Northbound @ Grandview,0,
411,411,,,,941621,,2,-78.8056,43.8889,2,94162,Townline Northbound @ Gord Vinson Ave,0,
411,411,,,,941521,,2,-78.80185,43.88993,2,94152,Gord Vinson Eastbound @ Fenning Drive,0,
411,411,,,,1339:1,,2,-78.798484,43.891145,2,1339,Rosswell Northbound @ Bloor,0,
411,411,,,,941541,,2,-78.79788,43.89319,2,94154,Meadowglade Road Eastbound @ Cale Ave,0,
411,411,,,,93301:1,,1,-78.79482,43.89756,2,93301,Preston vale Road Northbound @ Glenabbey Drive,0,
411,411,,,,93537:1,,1,-78.791802,43.900483,2,93537,Glenabbey Northbound @ Found,0,
411,411,,,,93305:1,,1,-78.790222,43.9029456,2,93305,Sandringham Eastbound @ Yorkville,0,
411,411,,,,93306:1,,1,-78.788302,43.90479976000001,2,93306,Sandringham Northbound @ Hillhurst,0,
411,411,,,,93307:1,,1,-78.7866448,43.9060993,2,93307,Sandringham Eastbound @ Trulls,0,
411,411,,,,1245:1,,1,-78.787906,43.910829,1,1245,Highway 2 Eastbound @ Trulls,0,
411,411,,,,3553:1,,1,-78.77812,43.91268,2,3553,Courtice Northbound @ Highway 2,0,
411,411,,,,93323:1,,1,-78.778853,43.914284,2,93323,Courtice Northbound @ Moyse,0,
411,411,,,,93325:1,,2,-78.779658,43.916109,2,93325,Courtice Northbound @ Nash,0,
411,411,,,,93326:1,,1,-78.781595,43.920355,2,93326,Courtice Northbound @ George Reynolds,0,
411,411,,,,93328:1,,1,-78.78806899999998,43.92032600000001,2,93328,George Reynolds Westbound @ Sleeman,0,
411,411,,,,93330:1,,1,-78.790942,43.919621,2,93330,George Reynolds Westbound @ Trulls,0,
411,411,,,,940401,,2,-78.791102,43.917123,2,94040,Trulls Southbound @ Devondale,0,
411,411,,,,940411,,2,-78.789765,43.914181,2,94041,Trulls Southbound @ Nash,0,
411,411,,,,940421,,2,-78.788622,43.9112,2,94042,Trulls Southbound @ Durham Highway 2,0,
411,411,,,,93338:1,,1,-78.788656,43.911656,2,93338,Trulls Northbound @ Highway 2,0,
411,411,,,,940371,,2,-78.789545,43.913854,2,94037,Trulls Northbound @ Nash,0,
411,411,,,,940381,,2,-78.790964,43.917206,2,94038,Trulls Northbound @ Cecil Found,0,
411,411,,,,940391,,2,-78.791855,43.919116,2,94039,Trulls Northbound @ George Reynolds,0,
411,411,,,,93329:1,,1,-78.787834,43.92021600000001,2,93329,George Reynolds Eastbound @ Sleeman,0,
411,411,,,,93327:1,,1,-78.781676,43.920052,2,93327,Courtice Southbound @ George Reynolds,0,
411,411,,,,93324:1,,1,-78.77997,43.91644200000001,2,93324,Courtice Southbound @ Nash,0,
411,411,,,,1217:1,,2,-78.778936,43.914105,2,1217,Courtice Southbound @ Moyse (Courtice Community Complex),0,
411,411,,,,1226:1,,2,-78.777544,43.910864,2,1226,Courtice Southbound @ Highway 2,0,
411,411,,,,1227:1,,1,-78.778369,43.909137,2,1227,Sandringham Westbound @ Short,0,
411,411,,,,1228:1,,1,-78.779807,43.907937,2,1228,Avondale Southbound @ Stagemaster,0,
411,411,,,,1229:1,,1,-78.780964,43.90579242,2,1229,Avondale Southbound @ Brownstone,0,
411,411,,,,1230:1,,1,-78.781861,43.904046,2,1230,Avondale Southbound @ Farmington,0,
411,411,,,,1231:1,,1,-78.784876,43.903403,2,1231,Trulls Northbound @ Avondale,0,
411,411,,,,1232:1,,1,-78.785437,43.90456300000001,2,1232,Northbound @ 2501 Trulls,0,
411,411,,,,1233:1,,1,-78.78781669999998,43.9059139,2,1233,Sandringham Westbound @ Bushford,0,
411,411,,,,1234:1,,1,-78.790682,43.90300993000001,2,1234,Sandringham Westbound @ Yorkville,0,
411,411,,,,93536:1,,1,-78.792329,43.901355,2,93536,Glenabbey Southbound @ Oke,0,
411,411,,,,93534:1,,2,-78.794723,43.89786363000001,2,93534,Glenabbey Westbound @ Prestonvale,0,
411,411,,,,941551,,2,-78.797909,43.893629,2,94155,Meadowglade Road Westbound @ Partner Drive,0,
411,411,,,,93293:1,,1,-78.798693,43.891066,2,93293,Rosswell Southbound @ Gord Vinson,0,
411,411,,,,941531,,2,-78.80226999999998,43.88994000000001,2,94153,Gord Vinson Westbound @ Fenning Drive,0,
411,411,,,,93466:1,,1,-78.805747,43.888891,2,93466,Townline Southbound @ Down,0,
411,411,,,,93347:1,,1,-78.80528099999998,43.887704,2,93347,Townline Southbound @ Grandview,0,
411,411,,,,93348:1,,1,-78.806272,43.886887,2,93348,Grandview Westbound @ Wesley,0,
411,411,,,,93349:1,,1,-78.81067299999998,43.887969,2,93349,Grandview Northbound @ Wesley,0,
411,411,,,,93350:1,,2,-78.814294,43.88987800000001,2,93350,Bloor Westbound @ Grandview,0,
411,411,,,,1080:1,,1,-78.820015,43.888469,2,1080,Westbound @ 882 Bloor,0,
411,411,,,,1118:1,,1,-78.83069399999998,43.884732,2,1118,Farewell Southbound @ Bloor,0,
411,411,,,,1119:1,,1,-78.829233,43.881319,1,1119,Farewell Southbound @ Raleigh,0,
411,411,,,,1120:1,,1,-78.8286811,43.8799536,2,1120,Farewell Southbound @ Wentworth,0,
411,411,,,,3562:1,,2,-78.832953,43.87795,2,3562,Wentworth Westbound @ Wilson,0,
411,411,,,,3563:1,,2,-78.837602,43.876669,2,3563,Wentworth Westbound @ Nelson,0,
411,411,,,,3565:1,,2,-78.84196799999998,43.875698,2,3565,Wentworth Westbound @ Ritson,0,
411,411,,,,927191,,2,-78.843889,43.87784,2,92719,Ritison Northbound @ Wolfe,0,
411,411,,,,92003:1,,2,-78.844845,43.88025819,2,92003,Northbound @ 753 Ritson,0,
411,411,,,,1088:1,,1,-78.85046,43.881681,2,1088,Bloor Westbound @ Merritt,0,
411,411,,,,1089:1,,1,-78.855267,43.880638,2,1089,Bloor Westbound @ Simcoe,0,
411,411,,,,1090:1,,1,-78.86027799999998,43.8794327,2,1090,Bloor Westbound @ Oxford,0,
411,411,,,,1091:1,,1,-78.864334,43.878553,2,1091,Bloor Westbound @ Park,0,
421,421,,,,1053:1,,1,-78.8787787,43.8748675,2,1053,Eastbound @ 555 Bloor,0,
421,421,,,,1062:1,,1,-78.837106,43.884574,2,1062,Bloor Eastbound @ Wilson (West side stop),0,
421,421,,,,1064:1,,1,-78.831834,43.885703,2,1064,Bloor Eastbound @ Farewell,0,
421,421,,,,1087:1,,1,-78.845791,43.88275200000001,2,1087,Bloor Westbound @ Ritson,0,
423,423,,,,1306:1,,2,-78.829032,43.895449,1,1306,Olive Eastbound @ Harcourt,0,
423,423,,,,1307:1,,1,-78.827236,43.89581297,2,1307,Olive Eastbound @ Florell,0,
423,423,,,,1308:1,,1,-78.824685,43.89644,2,1308,Olive Eastbound @ Dianne,0,
423,423,,,,1309:1,,1,-78.821788,43.896856,2,1309,Olive Eastbound @ Keewatin,0,
423,423,,,,941591,,2,-78.81341999999998,43.89826,2,94159,Olive Avenue Eastbound @ Athabasca Street,0,
423,423,,,,941661,,2,-78.8105,43.9002,2,94166,Townline Road Northbound @ Kingswood Drive,0,
423,423,,,,941631,,2,-78.8115,43.90250000000001,2,94163,Townline Road Northbound @ Barron Court,0,
423,423,,,,941651,,2,-78.81234,43.90441,2,94165,Townline Road Northbound @ Kingsway Gate,0,
423,423,,,,941641,,2,-78.81309,43.90617000000001,2,94164,Townline Road Northbound @ King Street,0,
423,423,,,,786:1,,2,-78.813964,43.90814300000001,2,786,Townline Northbound @ Nash,0,
423,423,,,,787:1,,2,-78.816023,43.912786,2,787,Townline Northbound @ Shankel,0,
423,423,,,,941481,,2,-78.819526,43.916446,2,94148,Adelaide Westbound @ Vega,0,
423,423,,,,941501,,2,-78.82482,43.91442,2,94150,Adelaide Avenue Westbound @ Fleetwood Drive,0,
423,423,,,,743:1,,1,-78.82981599999998,43.91399306000001,2,743,Adelaide Westbound @ Cranberry,0,
423,423,,,,744:1,,1,-78.832061,43.91383600000001,2,744,Adelaide Westbound @ Killdeer,0,
423,423,,,,745:1,,1,-78.83508999999998,43.91318900000001,2,745,Adelaide Westbound @ Blackthorn,0,
423,423,,,,746:1,,1,-78.837002,43.912793,1,746,Adelaide Westbound @ Harmony,0,
423,423,,,,93369:1,,1,-78.841933,43.922688,1,93369,Harmony Northbound @ Rossland (North side stop),0,
423,423,,,,93453:1,,1,-78.842742,43.924544,2,93453,Harmony Northbound @ Corbetts,0,
423,423,,,,93368:1,,1,-78.84414599999998,43.92776,2,93368,Harmony Northbound @ Storie,0,
423,423,,,,93366:1,,1,-78.844825,43.92924,2,93366,Harmony Northbound @ Beatrice,0,
423,423,,,,1143:1,,1,-78.84678599999998,43.933475,2,1143,Harmony Northbound @ Swiss,0,
423,423,,,,1144:1,,1,-78.847728,43.935668,2,1144,Harmony Northbound @ Grand Ridge,0,
423,423,,,,93177:1,,1,-78.849112,43.939112,2,93177,Harmony Northbound @ Taunton (South side stop),0,
423,423,,,,810:1,,1,-78.849628,43.940279,2,810,Harmony Northbound @ Taunton (North Side Stop),0,
423,423,,,,815:1,,1,-78.847847,43.94033300000001,2,815,Harmony Terminal Southbound @ Taunton,0,
423,423,,,,911:1,,1,-78.849298,43.93885,2,911,Harmony Southbound @ Taunton,0,
423,423,,,,912:1,,2,-78.84771499999998,43.935314,2,912,Harmony Southbound @ Grand Ridge,0,
423,423,,,,913:1,,1,-78.84691599999998,43.933437,2,913,Harmony Southbound @ Swiss,0,
423,423,,,,93365:1,,1,-78.845218,43.929665,2,93365,Harmony Southbound @ Beatrice,0,
423,423,,,,93367:1,,1,-78.844483,43.928091,2,93367,Harmony Southbound @ Storie,0,
423,423,,,,93454:1,,1,-78.843164,43.92509600000001,2,93454,Harmony Southbound @ Corbetts,0,
423,423,,,,93370:1,,1,-78.84209,43.922125,1,93370,Harmony Southbound @ Rossland,0,
423,423,,,,729:1,,1,-78.833889,43.913364,2,729,Adelaide Eastbound @ Blackthorn,0,
423,423,,,,730:1,,1,-78.831601,43.91376600000001,2,730,Adelaide Eastbound @ Killdeer,0,
423,423,,,,732:1,,1,-78.82607,43.91408,2,732,Adelaide Avenue Eastbound @ Fleetwood Drive,0,
423,423,,,,941491,,2,-78.818197,43.916608,2,94149,Adelaide Eastbound @ Vega,0,
423,423,,,,773:1,,2,-78.817411,43.91553300000001,2,773,Townline Southbound @ Lawson,0,
423,423,,,,774:1,,2,-78.816214,43.91279500000001,2,774,Townline Southbound @ Shankel,0,
423,423,,,,7751,,2,-78.814468,43.90883,2,775,Townline Southbound @ Nash,0,
423,423,,,,941681,,2,-78.81365,43.90677,2,94168,Townline Road Southbound @ King Street,0,
423,423,,,,941691,,2,-78.81238,43.90409,2,94169,Townline Road Southbound @ Kingsway Gate,0,
423,423,,,,941671,,2,-78.81161,43.90231,2,94167,Townline Road Southbound @ Barron Court,0,
423,423,,,,941701,,2,-78.81064,43.90005,2,94170,Townline Road Southbound @ Kingswood Drive,0,
423,423,,,,941601,,2,-78.81287,43.89858000000001,2,94160,Olive Avenue Westbound @ Athabasca Street,0,
423,423,,,,1252:1,,1,-78.821096,43.896941,2,1252,Olive Westbound @ Viewmount,0,
423,423,,,,1255:1,,1,-78.82724399999998,43.89598841,2,1255,Olive Westbound @ Florell,0,
502,502,,,,3347:1,,1,-78.7090942,43.9129222,2,3347,Clarington Boulevard Southbound @ Stevens,0,
502,502,,,,937331,,2,-78.70230599999998,43.9109185,2,93733,Durham Highway 2 Eastbound @ Bowmanville Ave,0,
502,502,,,,1452:1,,1,-78.694976,43.912771,2,1452,King Eastbound @ Roenigk,0,
502,502,,,,941311,,2,-78.692533,43.913996,2,94131,Scugog Northbound @ Church,0,
502,502,,,,941321,,2,-78.693467,43.916935,2,94132,Scugog Northbound @ O'Dell,0,
502,502,,,,941331,,2,-78.695243,43.921037,2,94133,Scugog Northbound @ Jackman,0,
502,502,,,,941341,,2,-78.697377,43.925778,2,94134,Scugog Northbound @ Longworth,0,
502,502,,,,941351,,2,-78.698014,43.92721,2,94135,Scugog Northbound @ Somerscales,0,
502,502,,,,941361,,2,-78.699653,43.930879,2,94136,Scugog Northbound @ Bons,0,
502,502,,,,938011,,2,-78.701053,43.933913,2,93801,Scugog @ Concession 3 n ns,0,
502,502,,,,94127,,2,-78.711204,43.936771,2,94127,Northglen Eastbound @ Kenneth Cole,0,
502,502,,,,941281,,2,-78.70322899999998,43.937716,2,94128,Middle Southbound @ Northglen,0,
502,502,,,,941291,,2,-78.701693,43.934469,2,94129,Middle Southbound @ Concession 3,0,
502,502,,,,941381,,2,-78.690382,43.9336,2,94138,Liberty Southbound @ Bons,0,
502,502,,,,941391,,2,-78.687673,43.930353,2,94139,Longworth Eastbound @ Liberty,0,
502,502,,,,941401,,2,-78.68607,43.930813,2,94140,Longworth Eastbound @ Swindells,0,
502,502,,,,941411,,2,-78.681037,43.932234,2,94141,Longworth Eastbound @ Rickaby,0,
502,502,,,,941421,,2,-78.677319,43.928678,2,94142,Mearns Southbound @ Elephant Hill,0,
502,502,,,,941431,,2,-78.675549,43.92479500000001,2,94143,Mearns Southbound @ Apple Blossom,0,
502,502,,,,941441,,2,-78.673993,43.921414,2,94144,Mearns Southbound @ Concession,0,
502,502,,,,941451,,1,-78.676874,43.919858,2,94145,Concession Westbound @ Mann,0,
502,502,,,,941461,,2,-78.68347799999998,43.917681,2,94146,Liberty Southbound @ Concession,0,
502,502,,,,941471,,2,-78.68187399999998,43.914013,2,94147,Liberty Southbound @ Wellington,0,
502,502,,,,941261,,2,-78.680541,43.910968,2,94126,Liberty Southbound @ King,0,
502,502,,,,1499:1,,1,-78.678921,43.908346,2,1499,Prince Eastbound @ Liberty (Lakeridge Health Bowmanville),0,
502,502,,,,3279:1,,1,-78.674384,43.909304,2,3279,Prince Eastbound @ Simpson,0,
502,502,,,,1498:1,,1,-78.675014,43.911329,1,1498,Simpson Northbound @ King,0,
502,502,,,,3149:1,,2,-78.681484,43.91361100000001,2,3149,Liberty Northbound @ Wellington,0,
502,502,,,,3150:1,,1,-78.683319,43.917844,2,3150,Liberty Northbound @ Concession,0,
502,502,,,,3151:1,,1,-78.678888,43.91926500000001,2,3151,Concession Eastbound @ Trudeau,0,
502,502,,,,3161:1,,1,-78.673813,43.921138,2,3161,Mearns Northbound @ Concession,0,
502,502,,,,3249:1,,1,-78.675239,43.924495,2,3249,Mearns Northbound @ Apple Blossom,0,
502,502,,,,3250:1,,1,-78.676991,43.928385,2,3250,Mearns Northbound @ Sprucewood,0,
502,502,,,,3251:1,,1,-78.682305,43.93205600000001,2,3251,Longworth Westbound @ Rickaby,0,
502,502,,,,3154:1,,1,-78.685434,43.93118,2,3154,Longworth Westbound @ Swindells,0,
502,502,,,,3173:1,,1,-78.688411,43.930322,2,3173,Longworth Westbound @ Liberty,0,
502,502,,,,3155:1,,1,-78.6893809,43.93182190000001,2,3155,Liberty Northbound @ Freeland,0,
502,502,,,,90034:1,,1,-78.69972199999998,43.930751,2,90034,Scugog Southbound @ Bons,0,
502,502,,,,90035:1,,1,-78.698374,43.927613,2,90035,Scugog Southbound @ Somerscales,0,
502,502,,,,1476:1,,1,-78.697139,43.924876,2,1476,Scugog Southbound @ Longworth,0,
502,502,,,,1477:1,,1,-78.695321,43.920873,2,1477,Scugog Southbound @ Jackman,0,
502,502,,,,1478:1,,2,-78.69368299999998,43.916997,2,1478,Scugog Southbound @ O'Dell,0,
502,502,,,,1479:1,,1,-78.691688,43.913909,2,1479,Church Eastbound @ Scugog Street,0,
502,502,,,,1480:1,,2,-78.688545,43.913138,1,1480,Church Eastbound @ Temperance,0,
502,502,,,,1432:1,,2,-78.688526,43.91215300000001,1,1432,King Westbound @ Temperance,0,
502,502,,,,1433:1,,1,-78.695055,43.912962,2,1433,King Westbound @ Roenigk,0,
502,502,,,,937341,,2,-78.701406,43.9116381,2,93734,Durham Highway 2 Westbound @ Bowmanville Ave,0,
502,502,,,,941301,,2,-78.707358,43.909904,2,94130,Highway 2 Westbound @ Clarington,0,
502,502,,,,3163:1,,1,-78.712264,43.909994,2,3163,Green Northbound @ Highway 2 (North side stop),0,
502,502,,,,93469:1,,1,-78.713055,43.913733,2,93469,Brook Hill Eastbound @ Green,0,
502,502,,,,1504:1,,1,-78.70716,43.908456,1,1504,Clarington Boulevard Southbound @ Prince William,0,
507,507,,,,1395:1,,2,-78.620589,43.984184,2,1395,Main Southbound @ Millson Hill,0,
507,507,,,,1396:1,,1,-78.617544,43.977406,2,1396,Main Southbound @ Centreview,0,
507,507,,,,935321,,2,-78.615001,43.971806,2,93532,Main Southbound @ Duchess,0,
507,507,,,,935331,,2,-78.612009,43.964867,2,93533,Main Southbound @ Winter,0,
507,507,,,,1410:1,,2,-78.593093,43.921133,2,1410,North Southbound @ Grady,0,
507,507,,,,942411,,2,-78.588771,43.917215,1,94241,Mills Southbound @ King,0,
507,507,,,,93472:1,,2,-78.587591,43.91462,2,93472,Mill Southbound @ Edward,0,
507,507,,,,942261,,2,-78.580493,43.917041,2,94226,Brookhouse Northbound @ Ravey,0,
507,507,,,,942271,,2,-78.582741,43.919042,2,94227,King Westbound @ Arthur,0,
507,507,,,,942281,,2,-78.585761,43.918275,2,94228,King Westbound @ Beaver,0,
507,507,,,,1411:1,,1,-78.591266,43.916949,2,1411,King Westbound @ North,0,
507,507,,,,1413:1,,1,-78.59710699999998,43.915658,1,1413,King Westbound @ Pedwell,0,
507,507,,,,1415:1,,1,-78.60070899999998,43.914759,2,1415,King Westbound @ Rudell,0,
507,507,,,,942291,,2,-78.666988,43.903226,2,94229,Baseline Westbound @ Mearns,0,
507,507,,,,3277:1,,2,-78.676347,43.901872,2,3277,Liberty Northbound @ Baseline,0,
507,507,,,,3278:1,,2,-78.677904,43.9054,2,3278,Liberty Northbound @ Southway,0,
507,507,,,,1494:1,,2,-78.67758996,43.90430979,2,1494,Liberty Southbound @ Park,0,
507,507,,,,942311,,2,-78.675124,43.901265,2,94231,Baseline Eastbound @ Liberty,0,
507,507,,,,942301,,2,-78.666437,43.903224,2,94230,Baseline Eastbound @ Mearns,0,
507,507,,,,1416:1,,2,-78.60155,43.914433,2,1416,Highway 2 Eastbound @ Rudell Road,0,
507,507,,,,1414:1,,1,-78.597667,43.915331,2,1414,King Eastbound @ Massey,0,
507,507,,,,1412:1,,2,-78.590838,43.91693200000001,2,1412,King Eastbound @ Baldwin,0,
507,507,,,,1408:1,,1,-78.588888,43.917763,2,1408,Mill Northbound @ King,0,
507,507,,,,1392:1,,2,-78.593264,43.921392,2,1392,North Northbound @ Monroe,0,
900,900,,,,1163:1,,1,-78.855176,43.900548,1,1163,Bond Westbound @ Ritson,0,
900,900,,,,1164:1,,1,-78.86069,43.899252,2,1164,Bond Westbound @ Mary,0,
900,900,,,,1165:1,,2,-78.8638232,43.89857640000001,1,1165,Bond Westbound @ Simcoe,0,
900,900,,,,1166:1,,1,-78.86599339999998,43.8980427,1,1166,Bond Westbound @ Centre,0,
900,900,,,,1167:1,,2,-78.8700233,43.8971812,2,1167,Bond Westbound @ Arena,0,
900,900,,,,1169:1,,1,-78.87463099999998,43.896215,1,1169,Bond Westbound @ Park,0,
900,900,,,,1171:1,,1,-78.878156,43.895268,2,1171,Bond Westbound @ Gibbons,0,
900,900,,,,1172:1,,1,-78.884232,43.89388328,1,1172,Bond Westbound @ Stevenson,0,
900,900,,,,1173:1,,1,-78.888154,43.892156,2,1173,King Westbound @ Waverly,0,
900,900,,,,1174:1,,1,-78.894721,43.89066900000001,1,1174,King Westbound @ Thornton,0,
900,900,,,,386:1,,1,-78.902539,43.888886,1,386,Dundas Westbound @ Garrard,0,
900,900,,,,387:1,,1,-78.90900999999998,43.887427,2,387,Dundas Westbound @ Kathleen,0,
900,900,,,,388:1,,1,-78.914145,43.886286,1,388,Dundas Westbound @ Thickson,0,
900,900,,,,389:1,,1,-78.917045,43.8856414,2,389,Dundas Westbound @ Bowman,0,
900,900,,,,391:1,,2,-78.92200099999998,43.884522,1,391,Dundas Westbound @ Anderson,0,
900,900,,,,393:1,,2,-78.929034,43.882884,2,393,Dundas Westbound @ Craydon,0,
900,900,,,,394:1,,1,-78.931932,43.882244,1,394,Dundas Westbound @ Garden,0,
900,900,,,,396:1,,2,-78.936954,43.881084,2,396,Dundas Westbound @ Pine,0,
900,900,,,,398:1,,1,-78.941772,43.879998,1,398,Dundas Westbound @ Brock Street,0,
900,900,,,,400:1,,2,-78.946685,43.878878,2,400,Dundas Westbound @ Euclid,0,
900,900,,,,401:1,,2,-78.95152,43.877863,1,401,Dundas Westbound @ Cochrane,0,
900,900,,,,405:1,,1,-78.961433,43.875597,1,405,Dundas Westbound @ McQuay,0,
900,900,,,,406:1,,1,-78.963955,43.875049,2,406,Dundas Westbound @ White Oaks,0,
900,900,,,,937491,,2,-78.970969,43.873682,1,93749,Dundas Westbound @ Des Newman,0,
900,900,,,,410:1,,2,-78.98098,43.87132,2,410,Dundas Westbound @ Halls,0,
900,900,,,,411:1,,2,-78.987092,43.869986,2,411,Kingston Westbound @ Lake Ridge,0,
900,900,,,,1587:1,,2,-78.995249,43.868228,2,1587,Kingston Westbound @ Audley,0,
900,900,,,,1588:1,,1,-79.00077,43.86702,2,1588,Kingston Westbound @ Alexanders Crossing,0,
900,900,,,,1590:1,,1,-79.0125542,43.8643554,2,1590,Kingston Westbound @ Wicks,0,
900,900,,,,1593:1,,1,-79.022563,43.862111,2,1593,Westbound @ 84 Kingston,0,
900,900,,,,1602:1,,1,-79.064752,43.852381,2,1602,Kingston Westbound @ Notion,0,
900,900,,,,1603:1,,1,-79.0710031,43.8501483,2,1603,Kingston Westbound @ Bainbridge,0,
900,900,,,,1604:1,,1,-79.07452499999998,43.84772,1,1604,Kingston Westbound @ Brock Road,0,
900,900,,,,1608:1,,1,-79.08748,43.83815,1,1608,Kingston Westbound @ Glenanna,0,
900,900,,,,1609:1,,1,-79.09104,43.83548,1,1609,Kingston Westbound @ Liverpool,0,
900,900,,,,1610:1,,1,-79.09672757,43.83097019,2,1610,Kingston Westbound @ Walnut,0,
900,900,,,,1611:1,,1,-79.098675,43.82906,1,1611,Kingston Westbound @ Dixie,0,
900,900,,,,1612:1,,1,-79.106421,43.823716,1,1612,Kingston Westbound @ Fairport,0,
900,900,,,,1613:1,,1,-79.111949,43.821703,2,1613,Westbound @ 804 Kingston,0,
900,900,,,,3590:1,,1,-79.114142,43.820127,2,3590,Kingston Westbound @ Delta,0,
900,900,,,,1742:1,,1,-79.115943,43.818764,2,1742,Kingston Westbound @ Whites,0,
900,900,,,,93240:1,,1,-79.145701,43.79950800000001,2,93240,Kingston Westbound @ Sheppard,0,
900,900,,,,93259:1,,1,-79.16329399999998,43.792626,2,93259,Ellesmere Westbound @ Meadowvale,0,
900,900,,,,9473:1,,1,-79.188152,43.7866837,2,9473,Ellesmere Westbound @ Military Trail,0,
900,900,,,,3589:1,,1,-79.190831,43.787494,2,3589,Centennial Circle,0,
900,900,,,,7698:1,,1,-79.187251,43.786768,2,7698,Ellesmere Eastbound @ Military Trail,0,
900,900,,,,93255:1,,1,-79.1639,43.7923,2,93255,Ellesmere Eastbound @ Meadowvale,0,
900,900,,,,93227:1,,1,-79.14547,43.79915600000001,2,93227,Kingston Eastbound @ Port Union,0,
900,900,,,,93061:1,,1,-79.132422,43.807572,1,93061,Kingston Eastbound @ Altona,0,
900,900,,,,1779:1,,1,-79.114699,43.819366,2,1779,Kingston Eastbound @ Whites,0,
900,900,,,,1780:1,,2,-79.110401,43.82242200000001,2,1780,Eastbound @ 817 Kingston,0,
900,900,,,,1781:1,,2,-79.1066,43.823526,1,1781,Kingston Eastbound @ Fairport,0,
900,900,,,,1782:1,,1,-79.098733,43.828459,1,1782,Kingston Eastbound @ Dixie,0,
900,900,,,,1783:1,,1,-79.096536,43.830837,2,1783,Kingston Eastbound @ Walnut,0,
900,900,,,,1787:1,,2,-79.081877,43.842456,2,1787,Kingston Eastbound @ Valley Farm,0,
900,900,,,,1789:1,,1,-79.0734468,43.84806,1,1789,Kingston Eastbound @ Brock Road,0,
900,900,,,,1790:1,,1,-79.0700786,43.8504078,2,1790,Kingston Eastbound @ Bainbridge,0,
900,900,,,,93254:1,,1,-79.0151977,43.8634583,1,93254,Kingston Eastbound @ Salem,0,
900,900,,,,92072:1,,1,-79.0131049,43.8639584,2,92072,Eastbound @ 257 Kingston Road East,0,
900,900,,,,2218:1,,1,-79.00946,43.8648288,2,2218,Kingston Eastbound @ Wicks,0,
900,900,,,,2220:1,,1,-79.00020499999998,43.866897,2,2220,Kingston Eastbound @ Alexanders Crossing,0,
900,900,,,,2221:1,,2,-78.996374,43.867763,2,2221,Kingston Eastbound @ Audley,0,
900,900,,,,412:1,,2,-78.98701,43.869794,2,412,Kingston Eastbound @ Lake Ridge,0,
900,900,,,,413:1,,2,-78.98135,43.87107000000001,2,413,Dundas Eastbound @ Halls,0,
900,900,,,,937471,,2,-78.971771,43.873089,1,93747,Dundas Eastbound @ Des Newman,0,
900,900,,,,417:1,,1,-78.96353499999998,43.87498,2,417,Dundas Eastbound @ White Oaks,0,
900,900,,,,418:1,,1,-78.9619208,43.8753204,1,418,Dundas Eastbound @ Jeffery,0,
900,900,,,,422:1,,1,-78.950632,43.877818,1,422,Dundas Eastbound @ Annes,0,
900,900,,,,424:1,,1,-78.946098,43.87885,2,424,Dundas Eastbound @ King,0,
900,900,,,,425:1,,2,-78.94241049999998,43.8797255,1,425,Dundas Eastbound @ Brock Street,0,
900,900,,,,427:1,,2,-78.938157,43.88066400000001,2,427,Dundas Eastbound @ Hickory,0,
900,900,,,,431:1,,1,-78.93106899999998,43.88225,1,431,Dundas Eastbound @ Lupin,0,
900,900,,,,432:1,,1,-78.928486,43.882846,2,432,Dundas Eastbound @ Craydon,0,
900,900,,,,434:1,,2,-78.922742,43.884171,1,434,Dundas Eastbound @ Hopkins,0,
900,900,,,,450:1,,2,-78.916718,43.885523,2,450,Dundas Eastbound @ Glen Hill,0,
900,900,,,,453:1,,1,-78.903884,43.888373,1,453,Dundas Eastbound @ Kendalwood,0,
900,900,,,,1175:1,,1,-78.8920772,43.8910876,1,1175,King Eastbound @ Thornton,0,
900,900,,,,1176:1,,1,-78.88811099999998,43.891958,2,1176,King Eastbound @ Waverly,0,
900,900,,,,1177:1,,1,-78.88199,43.89334800000001,1,1177,King Eastbound @ Stevenson,0,
900,900,,,,1178:1,,1,-78.8787275,43.89406180000001,2,1178,King Eastbound @ Gibbons,0,
900,900,,,,1181:1,,2,-78.872558,43.895479,1,1181,King Eastbound @ Warren,0,
900,900,,,,1183:1,,2,-78.868644,43.896359,2,1183,King Eastbound @ Midtown,0,
900,900,,,,2603:1,,2,-78.86528199999998,43.89714,1,2603,King Eastbound @ Centre,0,
900,900,,,,1242:1,,2,-78.863176,43.89762300000001,1,1242,King Eastbound @ Simcoe,0,
900,900,,,,1185:1,,2,-78.860061,43.898339,2,1185,King Eastbound @ Mary,0,
900,900,,,,1186:1,,2,-78.856595,43.899141,2,1186,King Eastbound @ Drew,0,
901,901,,,,93026:1,,2,-78.90291,43.96308,1,93026,Simcoe Southbound @ Windfields Farm,0,
901,901,,,,939371,,1,-78.89825264,43.95228111,2,93937,Simcoe Southbound @ Northern Dancer,0,
901,901,,,,941891,,2,-78.89219799999998,43.945083,2,94189,Simcoe Southbound @ Commencement,0,
901,901,,,,706:1,,2,-78.88919142270213,43.94308388677758,2,706,Simcoe Southbound @ Niagara (North stop),0,
901,901,,,,707:1,,2,-78.88622547469654,43.94097195519895,2,707,Simcoe Southbound @ Niagara (South stop),0,
901,901,,,,710:1,,2,-78.880108,43.93549500000001,2,710,Simcoe Southbound @ Cayuga,0,
901,901,,,,941871,,2,-78.879221,43.933393,1,94187,Simcoe Southbound @ Taunton (North Side Stop),0,
901,901,,,,711:1,,1,-78.87899819,43.93236901,1,711,Simcoe Southbound @ Taunton,0,
901,901,,,,713:1,,2,-78.877548,43.929238,2,713,Simcoe Southbound @ Orchard View,0,
901,901,,,,714:1,,2,-78.876283,43.926397,2,714,Simcoe Southbound @ Beatrice,0,
901,901,,,,716:1,,2,-78.873886,43.921148,2,716,Simcoe Southbound @ Switzer,0,
901,901,,,,650:1,,1,-78.87128199999998,43.914802,2,650,Simcoe Southbound @ Rossland,0,
901,901,,,,652:1,,1,-78.869478,43.91044473,2,652,Simcoe Southbound @ Buckingham,0,
901,901,,,,654:1,,1,-78.86736,43.90554102,2,654,Simcoe Southbound @ Parkwood (Lakeridge Health Oshawa),0,
901,901,,,,655:1,,2,-78.866169,43.903,2,655,Simcoe Southbound @ Adelaide,0,
901,901,,,,657:1,,2,-78.867222,43.90002900000001,2,657,Centre Southbound @ William,0,
901,901,,,,659:1,,2,-78.865958,43.897281,1,659,Centre Southbound @ King,0,
901,901,,,,661:1,,1,-78.863867,43.893237,2,661,Centre Southbound @ John,0,
901,901,,,,663:1,,1,-78.862638,43.890561,2,663,Centre Southbound @ Gibb,0,
901,901,,,,664:1,,2,-78.859288,43.887996,2,664,Simcoe Southbound @ Royal,0,
901,901,,,,665:1,,1,-78.858189,43.885542,2,665,Simcoe Southbound @ Mill,0,
901,901,,,,666:1,,1,-78.857382,43.883745,2,666,Simcoe Southbound @ First,0,
901,901,,,,667:1,,2,-78.85623649999998,43.8810192,2,667,Simcoe Southbound @ Bloor,0,
901,901,,,,3567:1,,2,-78.853061,43.878204,2,3567,Simcoe Southbound @ Erie,0,
901,901,,,,3569:1,,2,-78.849958,43.876637,2,3569,Simcoe Southbound @ Whiting,0,
901,901,,,,3570:1,,2,-78.84462499999998,43.873879,1,3570,Simcoe Southbound @ Wentworth,0,
901,901,,,,1023:1,,1,-78.841181,43.872059,2,1023,Simcoe Southbound @ Ritson,0,
901,901,,,,1024:1,,1,-78.8386,43.870666,2,1024,Simcoe Southbound @ Wellington,0,
901,901,,,,1025:1,,1,-78.835431,43.86897900000001,2,1025,Simcoe Southbound @ Kawartha,0,
901,901,,,,1027:1,,1,-78.82959099999998,43.863287,2,1027,Westbound @ 60 Lakeview Park,0,
901,901,,,,93028:1,,1,-78.834452,43.861986,2,93028,Lakeview Westbound @ Birchcliffe,0,
901,901,,,,1029:1,,1,-78.836721,43.861379,2,1029,Lakeview Park Westbound @ Ritson,0,
901,901,,,,672:1,,2,-78.860193,43.890377,2,672,Simcoe Northbound @ Elm St,0,
901,901,,,,674:1,,1,-78.86185999999998,43.894039,2,674,Simcoe Northbound @ John,0,
901,901,,,,93178:1,,1,-78.86306,43.89651,2,93178,Simcoe Northbound @ Athol,0,
901,901,,,,677:1,,2,-78.86413,43.898769,1,677,Simcoe Northbound @ Bond,0,
901,901,,,,678:1,,1,-78.865075,43.90088592,2,678,Simcoe Northbound @ Colborne,0,
901,901,,,,679:1,,1,-78.866139,43.903302,2,679,Simcoe Northbound @ Adelaide,0,
901,901,,,,680:1,,1,-78.867149,43.905794,2,680,Simcoe Northbound @ Parkwood (Lakeridge Health Oshawa),0,
901,901,,,,682:1,,2,-78.869386,43.9108,2,682,Simcoe Northbound @ Hillcroft,0,
901,901,,,,605:1,,1,-78.871221,43.91553600000001,2,605,Simcoe Northbound @ Rossland,0,
901,901,,,,685:1,,2,-78.873688,43.921189,2,685,Simcoe Northbound @ Switzer,0,
901,901,,,,687:1,,1,-78.875722,43.92581100000001,2,687,Simcoe Northbound @ Beatrice,0,
901,901,,,,689:1,,2,-78.877303,43.92918800000001,2,689,Simcoe Northbound @ Orchard View,0,
901,901,,,,941881,,2,-78.878746,43.932763,1,94188,Simcoe Northbound @ Taunton (South Side Stop),0,
901,901,,,,691:1,,1,-78.879102,43.933738,1,691,Simcoe Northbound @ Taunton (North side stop),0,
901,901,,,,693:1,,1,-78.880577,43.936894,2,693,Simcoe Northbound @ Glovers,0,
901,901,,,,695:1,,2,-78.88569,43.940856,2,695,Simcoe Northbound @ Selleck,0,
901,901,,,,3557:1,,2,-78.89949,43.95583,1,3557,Simcoe Northbound @ Britannia,0,
901,901,,,,1030:1,,1,-78.83846,43.86425,2,1030,Valley Westbound @ Ritson,0,
901,901,,,,1031:1,,1,-78.84241,43.864094,2,1031,Phillip Murray Southbound @ Fundy,0,
901,901,,,,1032:1,,1,-78.84441,43.86300700000001,2,1032,Phillip Murray Southbound @ Scugog,0,
901,901,,,,1033:1,,1,-78.84781779532226,43.86144322995122,2,1033,Cedar Northbound @ Phillip Murray,0,
901,901,,,,987:1,,1,-78.8492,43.864875,2,987,Cedar Northbound @ Banff,0,
901,901,,,,988:1,,1,-78.850005,43.867212,2,988,Cedar Northbound @ Killarney,0,
901,901,,,,989:1,,1,-78.851091,43.86968,2,989,Cedar Northbound @ Wentworth,0,
901,901,,,,1020:1,,1,-78.846475,43.873007,2,1020,Wentworth Eastbound @ Ravine,0,
901,901,,,,1096:1,,1,-78.845479,43.874477,2,1096,Simcoe Northbound @ Wentworth,0,
901,901,,,,1097:1,,1,-78.848778,43.876246,2,1097,Simcoe Northbound @ Frank,0,
901,901,,,,90015:1,,2,-78.851395,43.877563,2,90015,Simcoe Northbound @ Conant,0,
901,901,,,,668:1,,2,-78.85599499999998,43.88109588,2,668,Simcoe Northbound @ Bloor,0,
901,901,,,,669:1,,1,-78.857287,43.88393400000001,2,669,Simcoe Northbound @ First,0,
901,901,,,,670:1,,1,-78.858134,43.885802,2,670,Simcoe Northbound @ Albany,0,
901,901,,,,671:1,,2,-78.859208,43.888214,2,671,Simcoe Northbound @ Royal,0,
902,902,,,,1430:1,,2,-78.680784,43.910554,2,1430,King Westbound @ Liberty,0,
902,902,,,,1431:1,,2,-78.68621,43.911481,2,1431,King Westbound @ George,0,
902,902,,,,937321,,2,-78.70954,43.9054377,2,93732,Clarington Blvd Westbound @ Green Road,0,
902,902,,,,3346:1,,2,-78.711744,43.9087386,2,3346,Green Northbound @ Highway 2 (South side stop),0,
902,902,,,,1436:1,,1,-78.71688,43.909692,2,1436,Highway 2 Westbound @ Boswell,0,
902,902,,,,937301,,2,-78.72386,43.9107906,2,93730,Durham Highway 2 Westbound @ Maple Grove,0,
902,902,,,,937281,,2,-78.734177,43.9126438,2,93728,Durham Highway 2 Westbound @ Holt,0,
902,902,,,,937261,,2,-78.745721,43.9140712,2,93726,Durham Highway 2 Westbound @ Rundle,0,
902,902,,,,937241,,2,-78.756297,43.9144556,2,93724,Durham Highway 2 Westbound @ Solina,0,
902,902,,,,937221,,2,-78.769786,43.9140769,2,93722,Durham Highway 2 Westbound @ Hancock,0,
902,902,,,,1218:1,,1,-78.779235,43.911594,1,1218,Highway 2 Westbound @ Courtice,0,
902,902,,,,1219:1,,1,-78.788115,43.911048,1,1219,Highway 2 Westbound @ Trulls,0,
902,902,,,,1220:1,,2,-78.79601,43.909174,2,1220,Highway 2 Westbound @ Sandringham,0,
902,902,,,,1221:1,,1,-78.797674,43.908585,1,1221,Highway 2 Westbound @ Prestonvale,0,
902,902,,,,1222:1,,1,-78.803571,43.90764200000001,1,1222,Highway 2 Westbound @ Centerfield,0,
902,902,,,,1223:1,,1,-78.807587,43.907163,2,1223,Highway 2 Westbound @ Varcoe,0,
902,902,,,,1133:1,,1,-78.81421,43.90656,1,1133,King Westbound @ Townline,0,
902,902,,,,1134:1,,1,-78.818826,43.906087,2,1134,King Westbound @ Athabasca,0,
902,902,,,,1135:1,,1,-78.821771,43.905816,2,1135,King Westbound @ Kingsway College,0,
902,902,,,,1136:1,,1,-78.827635,43.90592800000001,2,1136,King Westbound @ Keewatin,0,
902,902,,,,1137:1,,1,-78.829896,43.90541000000001,2,1137,King Westbound @ Melrose,0,
902,902,,,,1156:1,,2,-78.835009,43.90424800000001,1,1156,King Westbound @ Harmony,0,
902,902,,,,1157:1,,1,-78.837534,43.90426723,2,1157,Bond Northbound @ Riverside,0,
902,902,,,,1158:1,,1,-78.84238999999998,43.90453,2,1158,Bond Westbound @ Claymore (East side stop),0,
902,902,,,,1159:1,,1,-78.844005,43.904135,1,1159,Bond Westbound @ Claymore (West side stop),0,
902,902,,,,1160:1,,1,-78.847111,43.90335675,2,1160,Bond Westbound @ Cadillac,0,
902,902,,,,1161:1,,1,-78.84988199999998,43.902664,2,1161,Bond Westbound @ Patricia,0,
902,902,,,,1162:1,,1,-78.85265699999998,43.901254,2,1162,Bond Westbound @ Oshawa Boulevard,0,
902,902,,,,1359:1,,2,-78.873767,43.895694,2,1359,Park Southbound @ King,0,
902,902,,,,1360:1,,2,-78.87290299999998,43.893793,2,1360,Park Southbound @ Pine,0,
902,902,,,,1361:1,,2,-78.872083,43.891968,2,1361,Park Southbound @ Elmgrove,0,
902,902,,,,958:1,,1,-78.880117,43.8854908,2,958,Stevenson Southbound @ Gibb,0,
902,902,,,,959:1,,1,-78.877979,43.88086100000001,1,959,Stevenson Southbound @ Laval,0,
902,902,,,,941:1,,1,-78.877266,43.879998,1,941,Stevenson Northbound @ Laval,0,
902,902,,,,942:1,,1,-78.879867,43.88574400000001,2,942,Stevenson Northbound @ Gibb,0,
902,902,,,,1363:1,,2,-78.8719904,43.8922679,2,1363,Park Northbound @ John,0,
902,902,,,,1364:1,,2,-78.873147,43.8946786,2,1364,Park Northbound @ King,0,
902,902,,,,1187:1,,1,-78.853177,43.89992500000001,1,1187,King Eastbound @ Rowe,0,
902,902,,,,1188:1,,1,-78.848573,43.901002,2,1188,King Eastbound @ Central Park,0,
902,902,,,,1189:1,,1,-78.846174,43.901543,2,1189,King Eastbound @ Cadillac,0,
902,902,,,,1190:1,,2,-78.843385,43.902215,1,1190,King Eastbound @ Wilson,0,
902,902,,,,1192:1,,1,-78.839804,43.903023,2,1192,King Eastbound @ Farewell,0,
902,902,,,,1193:1,,1,-78.837145,43.90361,2,1193,King Eastbound @ Riverside,0,
902,902,,,,1194:1,,1,-78.834637,43.904153,2,1194,King Eastbound @ Harmony,0,
902,902,,,,1195:1,,1,-78.828657,43.905525,2,1195,King Eastbound @ Melrose,0,
902,902,,,,1196:1,,1,-78.82687,43.905856,2,1196,King Eastbound @ Keewatin,0,
902,902,,,,1197:1,,1,-78.823016,43.90560521,2,1197,King Eastbound @ Grandview,0,
902,902,,,,1198:1,,1,-78.820278,43.905817,2,1198,King Eastbound @ Rockcliffe,0,
902,902,,,,1199:1,,1,-78.816804,43.90612500000001,2,1199,King Eastbound @ Eastlawn,0,
902,902,,,,1200:1,,1,-78.813775,43.906406,1,1200,King Eastbound @ Townline,0,
902,902,,,,1224:1,,1,-78.808273,43.906907,2,1224,Highway 2 Eastbound @ Darlington Boulevard,0,
902,902,,,,1225:1,,1,-78.803827,43.907393,1,1225,Highway 2 Eastbound @ Old Kingston,0,
902,902,,,,1244:1,,1,-78.797456,43.908429,1,1244,Highway 2 Eastbound @ Prestonvale,0,
902,902,,,,93111:1,,2,-78.79465159999998,43.9094692,2,93111,Highway 2 Eastbound @ Sandringham,0,
902,902,,,,937211,,2,-78.777044,43.9121115,1,93721,Durham Highway 2 @ Courtice Road,0,
902,902,,,,937231,,2,-78.770601,43.9133221,2,93723,Durham Highway 2 Eastbound @ Hancock,0,
902,902,,,,937251,,2,-78.756069,43.9138579,2,93725,Durham Highway 2 Eastbound @ Solina,0,
902,902,,,,937271,,2,-78.745863,43.9136054,2,93727,Durham Highway 2 Eastbound @ Rundle,0,
902,902,,,,937291,,2,-78.735274,43.9123477,2,93729,Durham Highway 2 Eastbound @ Holt,0,
902,902,,,,937311,,2,-78.723765,43.91044930000001,2,93731,Durham Highway 2 Eastbound @ Maple Grove,0,
902,902,,,,937051,,2,-78.715382,43.90931,2,93705,Highway 2 Eastbound @ Boswell,0,
902,902,,,,3165:1,,2,-78.711662,43.90821300000001,2,3165,Green Southbound @ South Of Highway 2,0,
902,902,,,,3172:1,,1,-78.710404,43.905223,2,3172,Green Southbound @ Boswell,0,
902,902,,,,937201,,2,-78.706862,43.908273,1,93720,Clarington Northbound @ Prince William,0,
902,902,,,,1454:1,,2,-78.687321,43.911662,2,1454,King Eastbound @ Division,0,
902,902,,,,1455:1,,2,-78.684811,43.911026,2,1455,King Eastbound @ Ontario,0,
902,902,,,,1456:1,,1,-78.680907,43.91041,2,1456,King Eastbound @ Liberty,0,
905,905,,,,3410:1,,2,-78.922324,43.908294,2,3410,Thickson Southbound @ Winterberry,0,
905,905,,,,3411:1,,1,-78.920688,43.904494,2,3411,Thickson Southbound @ Rossland,0,
905,905,,,,3412:1,,2,-78.91931099999998,43.901398,2,3412,Thickson Southbound @ William Stephenson,0,
905,905,,,,3413:1,,2,-78.9184387,43.8994523,2,3413,Thickson Southbound @ Marta,0,
905,905,,,,3415:1,,2,-78.91639499999998,43.894635,2,3415,Thickson Southbound @ Manning,0,
905,905,,,,310:1,,1,-78.915889,43.893474,2,310,Thickson Southbound @ Dalton,0,
905,905,,,,311:1,,1,-78.915149,43.89187877,2,311,Thickson Southbound @ Pine Hills,0,
905,905,,,,312:1,,1,-78.91385,43.88874243,2,312,Thickson Southbound @ Crawforth,0,
905,905,,,,313:1,,1,-78.913195,43.88721867000001,2,313,Thickson Southbound @ Dundas,0,
905,905,,,,314:1,,1,-78.912122,43.884433,2,314,Southbound @ 44 Thickson,0,
905,905,,,,315:1,,1,-78.911373,43.882767,2,315,Thickson Southbound @ Nichol,0,
905,905,,,,316:1,,1,-78.909859,43.879377,2,316,Thickson Southbound @ Long,0,
905,905,,,,317:1,,1,-78.908946,43.87764539,2,317,Thickson Southbound @ Burns,0,
905,905,,,,93242:1,,1,-78.90715299999998,43.873205,2,93242,Thickson Southbound @ Consumers,0,
905,905,,,,321:1,,1,-78.9078341,43.8723866,2,321,Consumers Westbound @ Thickson,0,
905,905,,,,322:1,,1,-78.91304599999998,43.870879,2,322,Consumers Westbound @ Sunray,0,
905,905,,,,323:1,,2,-78.915887,43.870194,2,323,Consumers Westbound @ Hopkins,0,
905,905,,,,335:1,,1,-78.9128184418275,43.87071339196998,2,335,Consumers Eastbound @ Sunray,0,
905,905,,,,942381,,2,-78.906742,43.873245,2,94238,Thickson Northbound @ Stellar,0,
905,905,,,,272:1,,2,-78.908542,43.877058,2,272,Thickson Northbound @ Burns,0,
905,905,,,,274:1,,2,-78.910842,43.88211600000001,2,274,Thickson Northbound @ Nichol,0,
905,905,,,,275:1,,1,-78.911801,43.884288,2,275,Northbound @ 35 Thickson,0,
905,905,,,,276:1,,1,-78.912944,43.88712300000001,2,276,Thickson Northbound @ Dundas,0,
905,905,,,,277:1,,1,-78.91350799999998,43.88843361,2,277,Thickson Northbound @ Crawforth,0,
905,905,,,,278:1,,1,-78.914804,43.89153000000001,2,278,Thickson Northbound @ Pine Hills,0,
905,905,,,,279:1,,1,-78.915756,43.893721,2,279,Thickson Northbound @ Dalton,0,
905,905,,,,309:1,,1,-78.91623869999998,43.8948175,2,309,Thickson Northbound @ Manning,0,
905,905,,,,281:1,,1,-78.918233,43.899509,2,281,Thickson Northbound @ Canadian Oaks,0,
905,905,,,,282:1,,1,-78.91921739999998,43.9018064,2,282,Thickson Northbound @ William Stephenson,0,
905,905,,,,283:1,,1,-78.92006499999998,43.903729,2,283,Thickson Northbound @ Rossland,0,
905,905,,,,941911,,1,-78.920609,43.905014,2,94191,Thickson Northbound @ Rossland (North Side Stop),0,
905,905,,,,93185:1,,1,-78.921216,43.906341,2,93185,Northbound @ 3193 Thickson,0,
905,905,,,,93186:1,,1,-78.92209579999998,43.9084673,2,93186,Thickson Northbound @ Winterberry,0,
905,905,,,,3106:1,,1,-78.92341399999998,43.911379,2,3106,Thickson Northbound @ Fieldnest,0,
905,905,,,,3107:1,,1,-78.924456,43.913835,2,3107,Thickson Northbound @ Dryden,0,
905,905,,,,937391,,2,-78.921612,43.91477900000001,2,93739,Dryden Eastbound @ Waller,0,
905,905,,,,937381,,2,-78.918736,43.915641,2,93738,Dryden Eastbound @ Steele Valley,0,
905,905,,,,937371,,2,-78.915265,43.917454,2,93737,Garrard Northbound @ Dryden,0,
905,905,,,,937361,,2,-78.91632199999998,43.919757,2,93736,Garrard Northbound @ Gagnon,0,
905,905,,,,937351,,2,-78.91789199999998,43.923381,2,93735,Garrard Northbound @ Griffen,0,
905,905,,,,385:1,,1,-78.91737,43.92414,1,385,Taunton Eastbound @ Garrard,0,
905,905,,,,835:1,,1,-78.912558,43.92524800000001,2,835,Eastbound @ 899 Taunton,0,
905,905,,,,836:1,,1,-78.907676,43.92635520000001,1,836,Taunton Eastbound @ Thornton,0,
905,905,,,,837:1,,1,-78.902595,43.9274802,2,837,Taunton Eastbound @ Keith Ross,0,
905,905,,,,838:1,,1,-78.89858982,43.92843734,1,838,Taunton Eastbound @ Airport,0,
905,905,,,,839:1,,1,-78.8938222,43.9295007,2,839,Eastbound @ 389 Taunton,0,
905,905,,,,840:1,,1,-78.888058,43.930783,2,840,Taunton Eastbound @ Northbrook,0,
905,905,,,,841:1,,1,-78.884417,43.93161,2,841,Taunton Eastbound @ Somerville,0,
905,905,,,,697:1,,2,-78.892132,43.945336,2,697,Simcoe Northbound @ Commencement,0,
905,905,,,,36331,,2,-78.902719,43.963248,1,3633,Simcoe Northbound @ Windfields Farm,0,
905,905,,,,2456:1,,2,-78.91001199999998,43.979501,2,2456,Simcoe Northbound @ Steepleview (Columbus),0,
905,905,,,,2457:1,,2,-78.911266,43.982318,2,2457,Simcoe Northbound @ Columbus Road (Columbus),0,
905,905,,,,2462:1,,2,-78.925672,44.017775,2,2462,Simcoe Northbound @ Raglan Road (Raglan),0,
905,905,,,,2463:1,,2,-78.924563,44.024868,2,2463,Simcoe Northbound @ Snow Ridge,0,
905,905,,,,2466:1,,2,-78.923906,44.04992,2,2466,Simcoe Northbound @ Shirley (Shirley Road Commuter Parking),0,
905,905,,,,2733:1,,1,-78.94143037,44.09167138,2,2733,Simcoe Northbound @ Greenway,0,
905,905,,,,2734:1,,1,-78.942667,44.09453,2,2734,Simcoe Northbound @ Vanedward,0,
905,905,,,,2735:1,,2,-78.947175,44.094332,2,2735,Union Southbound @ Major,0,
905,905,,,,2737:1,,2,-78.94855099999998,44.091129,2,2737,Union Southbound @ Robin Trail,0,
905,905,,,,2739:1,,2,-78.95111799999998,44.08454,2,2739,King Westbound @ Union,0,
905,905,,,,2473:1,,2,-78.95354168,44.08405984,2,2473,King Westbound @ Old Simcoe,0,
905,905,,,,2474:1,,2,-78.954981,44.086597,2,2474,Old Simcoe Northbound @ Barber,0,
905,905,,,,2475:1,,1,-78.955184,44.089871,2,2475,Old Simcoe Northbound @ Jeffrey,0,
905,905,,,,93102:1,,1,-78.95541799999998,44.093677,2,93102,Old Simcoe Northbound @ Victoria,0,
905,905,,,,2507:1,,2,-78.960274,44.096353,2,2507,Highway 7A Southbound @ Scugog Line 6,0,
905,905,,,,3300:1,,2,-78.965222,44.094684,2,3300,Highway 7A Westbound @ SmartCentres Port Perry,0,
905,905,,,,2508:1,,2,-78.960992,44.095613,2,2508,Highway 7A Northbound @ Scugog,0,
905,905,,,,2509:1,,2,-78.955305,44.09774800000001,2,2509,Scugog Eastbound @ Old Simcoe,0,
905,905,,,,2510:1,,2,-78.951258,44.098585,2,2510,Scugog Eastbound @ Ottawa,0,
905,905,,,,2511:1,,2,-78.947712,44.09931000000001,2,2511,Scugog Eastbound @ Arrow,0,
905,905,,,,2512:1,,2,-78.944804,44.099892,2,2512,Scugog Eastbound @ Simcoe,0,
905,905,,,,93106:1,,2,-78.94311,44.10026,2,93106,Scugog Eastbound @ High,0,
905,905,,,,2491:1,,1,-78.938356,44.10227900000001,1,2491,Curts Eastbound @ Port Perry Terminal,0,
905,905,,,,2503:1,,2,-78.945102,44.099916,2,2503,Scugog  Westbound @ Simcoe,0,
905,905,,,,3340:1,,1,-78.94709667801564,44.10351827820833,2,3340,Simcoe Northbound @ Queen,0,
905,905,,,,2514:1,,2,-78.948792,44.107457,2,2514,Simcoe Northbound @ Balsam,0,
905,905,,,,2515:1,,2,-78.95,44.110223,2,2515,Simcoe Northbound @ Beech,0,
905,905,,,,2749:1,,1,-78.950491,44.111357,2,2749,Northbound @ 15929 Simcoe St,0,
905,905,,,,2454:1,,2,-78.951684,44.112316,2,2454,Reach Westbound @ Simcoe,0,
905,905,,,,2750:1,,2,-78.953783,44.111917,2,2750,Reach Westbound @ Carlan,0,
905,905,,,,2455:1,,2,-78.957656,44.111107,2,2455,Reach Westbound @ Old Simcoe,0,
905,905,,,,2451:1,,2,-78.961945,44.110199,2,2451,Reach Westbound @ Sherrington,0,
905,905,,,,2449:1,,2,-78.977997,44.106635,2,2449,Reach Westbound @ North Port,0,
905,905,,,,2447:1,,2,-78.98500799999998,44.105095,2,2447,Reach Westbound @ Reach Industrial Park,0,
905,905,,,,93093:1,,2,-78.99335,44.10319,2,93093,Reach Westbound @ Highway 7/12,0,
905,905,,,,2444:1,,2,-79.035732,44.093705,2,2444,Reach Westbound @ Marsh Hill (Epsom),0,
905,905,,,,2431:1,,1,-79.108006,44.104497,2,2431,Reach Northbound @ Coral Creek,0,
905,905,,,,3224:1,,1,-79.115221,44.10559400000001,2,3224,Franklin Northbound @ Reach,0,
905,905,,,,2433:1,,1,-79.115832,44.106913,2,2433,Franklin Northbound @ Parkside,0,
905,905,,,,2434:1,,2,-79.117222,44.109968,2,2434,Franklin Northbound @ Brock Street,0,
905,905,,,,2443:1,,1,-79.12032499999998,44.109472,2,2443,Brock Street Westbound @ Main Street,0,
905,905,,,,2422:1,,1,-79.122461,44.109303,2,2422,Toronto Northbound @ Brock Street (North side stop),0,
905,905,,,,937041,,2,-79.125063,44.10964400000001,1,93704,Railway Southbound @ Albert,0,
905,905,,,,3127:1,,1,-78.896619,43.956275,2,3127,Britannia Eastbound @ Steeplechase,0,
905,905,,,,3128:1,,2,-78.893451,43.955878,2,3128,Britannia Eastbound @ Bridle,0,
905,905,,,,940521,,2,-78.885386,43.954945,2,94052,Britannia Eastbound @ Raike,0,
905,905,,,,940511,,2,-78.878843,43.956148,2,94051,Britannia Eastbound @ Ritson,0,
905,905,,,,940501,,2,-78.877242,43.953015,2,94050,Ritson Southbound @ Maine,0,
905,905,,,,3133:1,,2,-78.846023,43.95607300000001,2,3133,Grandview Southbound @ Woodstream,0,
905,905,,,,940481,,2,-78.844517,43.952296,2,94048,Grandview Southbound @ Greenhill,0,
905,905,,,,3134:1,,2,-78.843457,43.95001100000001,2,3134,Grandview Southbound @ Salmers,0,
905,905,,,,3135:1,,2,-78.843025,43.949878,2,3135,Grandview Northbound @ Salmers,0,
905,905,,,,36371,,2,-78.844133,43.952059,2,3637,Grandview Northbound @ Esterbrook,0,
905,905,,,,3136:1,,2,-78.845803,43.955852,2,3136,Grandview Northbound @ Woodstream,0,
905,905,,,,3137:1,,2,-78.856803,43.956986,2,3137,Conlin Westbound @ Harmony,0,
905,905,,,,940491,,2,-78.87615,43.952552,2,94049,Conlin Westbound @ Ritson (East side stop),0,
905,905,,,,935621,,2,-78.8795994,43.9562646,2,93562,Britannia Westbound @ Kedron,0,
905,905,,,,935641,,2,-78.884259,43.955218,2,93564,Britannia Westbound @ Pindar,0,
905,905,,,,935671,,2,-78.889993,43.955815,2,93567,Britannia Westbound @ Secreto,0,
905,905,,,,935681,,2,-78.892605,43.956057,2,93568,Britannia Westbound @ Bridle,0,
905,905,,,,3537:1,,2,-78.89646999999998,43.95653,2,3537,Britannia Westbound @ Steeplechase,0,
905,905,,,,3535:1,,2,-78.89864596744778,43.95638712467473,2,3535,Britannia Westbound @ Simcoe,0,
905,905,,,,3533:1,,2,-78.87956,43.93288,1,3533,Taunton Westbound @ Simcoe,0,
905,905,,,,829:1,,1,-78.883392,43.93202615,2,829,Taunton Westbound @ Somerville,0,
905,905,,,,830:1,,1,-78.887894,43.931005,2,830,Taunton Westbound @ Patton,0,
905,905,,,,831:1,,1,-78.893897,43.9296729,2,831,Westbound @ 418 Taunton,0,
905,905,,,,832:1,,1,-78.89779906,43.92879302,1,832,Taunton Westbound @ Stevenson,0,
905,905,,,,833:1,,1,-78.902849,43.927623,2,833,Taunton Westbound @ Keith Ross,0,
905,905,,,,834:1,,1,-78.907938,43.9265,1,834,Taunton Westbound @ Thornton,0,
905,905,,,,937401,,2,-79.122934,44.108695,2,93740,Brock Street Eastbound @ Toronto Street,0,
905,905,,,,36351,,2,-79.12059499999998,44.109315,2,3635,Brock Eastbound @ Main,0,
905,905,,,,2441:1,,1,-79.11723499999998,44.10972000000001,2,2441,Franklin Southbound @ Brock Street,0,
905,905,,,,2442:1,,1,-79.116345,44.107774,2,2442,Southbound @ 72 Franklin,0,
905,905,,,,2428:1,,1,-79.113612,44.104907,2,2428,Reach Eastbound @ East,0,
905,905,,,,2429:1,,1,-79.111752,44.104684,2,2429,Reach Eastbound @ Hamilton,0,
905,905,,,,2430:1,,1,-79.109229,44.104464,2,2430,Reach Eastbound @ Testa,0,
905,905,,,,2445:1,,2,-79.035966,44.093585,2,2445,Reach Eastbound @ Marsh Hill (Epsom),0,
905,905,,,,93094:1,,2,-78.99348999999998,44.10305000000001,2,93094,Reach Eastbound @ Highway 7/12,0,
905,905,,,,2446:1,,2,-78.985241,44.104969,2,2446,Reach Eastbound @ Reach Industrial Park,0,
905,905,,,,2448:1,,2,-78.978346,44.106497,2,2448,Reach Eastbound @ North Port,0,
905,905,,,,2450:1,,1,-78.961905,44.110073,2,2450,Reach Eastbound @ Sherrington,0,
905,905,,,,2452:1,,2,-78.957515,44.11102600000001,2,2452,Reach Eastbound @ Old Simcoe,0,
905,905,,,,2753:1,,2,-78.954558,44.111683,2,2753,Reach Eastbound @ Carlan,0,
905,905,,,,2453:1,,1,-78.951756,44.1122,2,2453,Reach Eastbound @ Simcoe,0,
905,905,,,,2500:1,,1,-78.950117,44.110346,2,2500,Simcoe Southbound @ Kellett,0,
905,905,,,,2501:1,,1,-78.94889,44.107337,2,2501,Simcoe Southbound @ Balsam,0,
905,905,,,,3339:1,,2,-78.94730861,44.10364003,2,3339,Simcoe Southbound @ Queen,0,
905,905,,,,2504:1,,2,-78.947519,44.099451,2,2504,Scugog Westbound @ Arrow,0,
905,905,,,,2505:1,,1,-78.950789,44.09877,2,2505,Scugog Westbound @ Ottawa,0,
905,905,,,,2506:1,,2,-78.955178,44.097862,2,2506,Scugog Westbound @ Old Simcoe,0,
905,905,,,,2516:1,,2,-78.95578399999998,44.096969,2,2516,Old Simcoe Southbound @ Scugog Street,0,
905,905,,,,2517:1,,2,-78.955567,44.093814,2,2517,Old Simcoe Southbound @ Victoria,0,
905,905,,,,2476:1,,2,-78.955344,44.090628,2,2476,Old Simcoe Southbound @ Jeffrey,0,
905,905,,,,2477:1,,2,-78.95506899999998,44.086558,2,2477,Old Simcoe Southbound @ Barber,0,
905,905,,,,2478:1,,1,-78.953711,44.083946,2,2478,King Eastbound @ Old Simcoe,0,
905,905,,,,2740:1,,1,-78.9509,44.085418,2,2740,Union Northbound @ Hurd,0,
905,905,,,,2741:1,,1,-78.948845,44.09017,2,2741,Union Northbound @ Josephine,0,
905,905,,,,2743:1,,1,-78.947064,44.094297,2,2743,Union Northbound @ Major,0,
905,905,,,,2744:1,,1,-78.94307499999998,44.094828,2,2744,Simcoe Southbound @ Vanedward,0,
905,905,,,,2745:1,,1,-78.94179818,44.09201925,2,2745,Simcoe Southbound @ Greenway,0,
905,905,,,,2467:1,,2,-78.924116,44.049755,2,2467,Simcoe Southbound @ Shirley (Shirley Road Commuter Parking),0,
905,905,,,,2464:1,,2,-78.92478199999998,44.024706,2,2464,Simcoe Southbound @ Snow Ridge,0,
905,905,,,,2465:1,,2,-78.925944,44.018378,2,2465,Simcoe Southbound @ Raglan Road (Raglan),0,
905,905,,,,2458:1,,2,-78.911351,43.982203,2,2458,Simcoe Southbound @ Columbus Road (Columbus),0,
905,905,,,,2459:1,,2,-78.910124,43.979472,2,2459,Simcoe Southbound @ Westview (Columbus),0,
915,915,,,,823:1,,1,-78.850735,43.939344,2,823,Taunton Westbound @ Harmony,0,
915,915,,,,824:1,,1,-78.854926,43.9384,2,824,Taunton Westbound @ Clearbrook,0,
915,915,,,,825:1,,1,-78.858528,43.93758900000001,1,825,Taunton Westbound @ Wilson (East side stop),0,
915,915,,,,826:1,,2,-78.861025,43.936993,2,826,Taunton Westbound @ Wilson (West side stop),0,
915,915,,,,827:1,,1,-78.865774,43.935955,2,827,Taunton Westbound @ Naples,0,
915,915,,,,828:1,,1,-78.8685493,43.9354034,1,828,Taunton Westbound @ Ritson,0,
915,915,,,,3531:1,,2,-78.87242871207518,43.93451980299271,2,3531,Taunton Westbound @ Mary,0,
915,915,,,,362:1,,1,-78.9190382,43.9239959,1,362,Taunton Westbound @ Garrard,0,
915,915,,,,363:1,,1,-78.92178700704784,43.92340655801685,1,363,Taunton Westbound @ Tom Edwards,0,
915,915,,,,364:1,,1,-78.92679099999998,43.922224,2,364,Taunton Westbound @ Thickson,0,
915,915,,,,365:1,,1,-78.9308059,43.9212983,1,365,Taunton Westbound @ Rivers Edge,0,
915,915,,,,366:1,,1,-78.937201,43.919855,2,366,Taunton Westbound @ Anderson,0,
915,915,,,,367:1,,1,-78.9417529,43.91891420000001,1,367,Westbound @ 440 Taunton,0,
915,915,,,,2713:1,,1,-78.944325,43.91836021000001,2,2713,Taunton Westbound @ Fallingbrook,0,
915,915,,,,90088:1,,1,-78.9471226,43.9177648,2,90088,Taunton Westbound @ Garden (East side stop),0,
915,915,,,,368:1,,1,-78.9492709,43.91729680000001,2,368,Taunton Westbound @ Garden (West side stop),0,
915,915,,,,369:1,,1,-78.95299799999998,43.916453,1,369,Taunton Westbound @ McKinney,0,
915,915,,,,370:1,,1,-78.9592671,43.91508420000001,2,370,Taunton Westbound @ Valleywood,0,
915,915,,,,371:1,,1,-78.966544,43.913312,1,371,Taunton Westbound @ Cochrane,0,
915,915,,,,372:1,,2,-78.976445,43.910955,2,372,Taunton Westbound @ Country Lane,0,
915,915,,,,2707:1,,2,-78.980509,43.910014,1,2707,Taunton Westbound @ Baycliff,0,
915,915,,,,2704:1,,2,-78.987629,43.908291,1,2704,Taunton Westbound @ Coronation,0,
915,915,,,,941011,,2,-78.991035,43.90754,2,94101,Taunton Westbound @ Des Newman,0,
915,915,,,,2404:1,,2,-79.011878,43.90267,2,2404,Taunton Westbound @ Audley,0,
915,915,,,,2405:1,,2,-79.01660699999998,43.9015153,1,2405,Taunton Westbound @ Warner,0,
915,915,,,,2708:1,,2,-79.0239972,43.89974380000001,2,2708,Taunton Westbound @ Gillett,0,
915,915,,,,2730:1,,2,-79.0431068,43.8952726,2,2730,Taunton Westbound @ Harwood,0,
915,915,,,,93055:1,,1,-79.05006016999998,43.89199751000001,2,93055,Westney Southbound @ Taunton,0,
915,915,,,,2245:1,,2,-79.048878,43.889739,2,2245,Southbound @ 1750 Westney,0,
915,915,,,,2246:1,,2,-79.04816599999998,43.88795600000001,2,2246,Westney Southbound @ Atherton,0,
915,915,,,,2247:1,,2,-79.047031,43.88526,2,2247,Westney Southbound @ Williamson,0,
915,915,,,,2258:1,,1,-79.042872,43.87519152,1,2258,Westney Southbound @ Rossland (South side stop),0,
915,915,,,,2259:1,,1,-79.041717,43.872596,2,2259,Westney Southbound @ Coughlen,0,
915,915,,,,2260:1,,1,-79.04054189999998,43.8698042,2,2260,Westney Southbound @ Ivers,0,
915,915,,,,2261:1,,1,-79.039272,43.866866,1,2261,Westney Southbound @ Delaney,0,
915,915,,,,2262:1,,1,-79.039095,43.86482,2,2262,Southbound @ 350 Westney,0,
915,915,,,,2263:1,,1,-79.0398311,43.8632403,2,2263,Southbound @ 216 Westney,0,
915,915,,,,3322:1,,1,-79.0418045,43.8568676,2,3322,Westney Southbound @ Kingston (South side stop),0,
915,915,,,,2285:1,,1,-79.040329,43.861546,2,2285,Westney Northbound @ Ravenscroft,0,
915,915,,,,2286:1,,1,-79.038754,43.866181,1,2286,Westney Northbound @ Magill,0,
915,915,,,,2287:1,,1,-79.040561,43.87030193,2,2287,Westney Northbound @ Ivers,0,
915,915,,,,2288:1,,1,-79.04188859999998,43.8737626,2,2288,Westney Northbound @ Sullivan,0,
915,915,,,,2252:1,,1,-79.0432136,43.87696840000001,1,2252,Westney Northbound @ Rossland,0,
915,915,,,,2253:1,,2,-79.044516,43.879701,2,2253,Westney Northbound @ Telford,0,
915,915,,,,2254:1,,2,-79.045439,43.881886,2,2254,Northbound @ 1331 Westney,0,
915,915,,,,92043:1,,2,-79.046574,43.884761,2,92043,Westney Northbound @ Williamson,0,
915,915,,,,2256:1,,2,-79.047648,43.88721000000001,2,2256,Westney Northbound @ Curtis,0,
915,915,,,,2257:1,,2,-79.048786,43.88983600000001,2,2257,Northbound @ 1753 Westney,0,
915,915,,,,93056:1,,1,-79.05035663,43.89317982,2,93056,Westney Northbound @ Taunton,0,
915,915,,,,2729:1,,1,-79.042882,43.895089,2,2729,Taunton Eastbound @ Harwood,0,
915,915,,,,2401:1,,2,-79.0245374,43.8993868,2,2401,Taunton Eastbound @ Gillett,0,
915,915,,,,2402:1,,2,-79.017127,43.901133,1,2402,Taunton Eastbound @ Warner,0,
915,915,,,,2403:1,,1,-79.011461,43.902546,2,2403,Taunton Eastbound @ Audley,0,
915,915,,,,941022,,2,-78.991807,43.907115,2,94102,Taunton Easttbound @ Des Newman,0,
915,915,,,,2705:1,,2,-78.986958,43.908217,1,2705,Taunton Eastbound @ Coronation,0,
915,915,,,,373:1,,1,-78.9808378,43.9096849,1,373,Taunton Eastbound @ Baycliffe,0,
915,915,,,,374:1,,1,-78.97723999999998,43.910527,2,374,Taunton Eastbound @ Country Lane,0,
915,915,,,,375:1,,1,-78.960565,43.914525,2,375,Taunton Eastbound @ Valleywood,0,
915,915,,,,376:1,,1,-78.958357,43.91501800000001,2,376,Taunton Eastbound @ Brock Street,0,
915,915,,,,377:1,,1,-78.95252,43.916349,1,377,Taunton Eastbound @ Riverwood,0,
915,915,,,,90078:1,,1,-78.95004,43.9168969,2,90078,Eastbound @ 169 Taunton,0,
915,915,,,,382:1,,1,-78.931424,43.92088900000001,1,382,Taunton Eastbound @ Chatterson,0,
915,915,,,,3534:1,,2,-78.87799,43.93301000000001,1,3534,Taunton Eastbound @ Simcoe,0,
915,915,,,,3532:1,,2,-78.87324,43.93408,2,3532,Taunton Eastbound @ Mary,0,
915,915,,,,843:1,,1,-78.86738099999998,43.935424,1,843,Taunton Eastbound @ Ritson,0,
915,915,,,,844:1,,1,-78.865706,43.935787,2,844,Taunton Eastbound @ Naples,0,
915,915,,,,845:1,,1,-78.860491,43.936944,2,845,Taunton Eastbound @ Wilson (West side stop),0,
915,915,,,,846:1,,1,-78.85835299999998,43.937445,1,846,Taunton Eastbound @ Wilson (East side stop),0,
915,915,,,,847:1,,1,-78.854571,43.938297,2,847,Taunton Eastbound @ Clearbrook,0,
915,915,,,,848:1,,1,-78.85238699999998,43.938789,2,848,Taunton Eastbound @ Harmony,0,
916,916,,,,1724:1,,1,-79.07411399999998,43.848587,2,1724,Brock Road Northbound @ Kingston,0,
916,916,,,,3560:1,,2,-79.07553726765236,43.85045080317794,2,3560,Brock Road Northbound @ Finch,0,
916,916,,,,1846:1,,2,-79.076493,43.852804,2,1846,Brock Road Northbound @ Usman,0,
916,916,,,,1847:1,,2,-79.077417,43.854784,1,1847,Brock Road Northbound @ Major Oaks,0,
916,916,,,,3435:1,,1,-79.079724,43.868324,2,3435,Rossland Eastbound @ Southcott,0,
916,916,,,,3434:1,,2,-79.073729,43.869703,2,3434,Rossland Eastbound @ Stannardville,0,
916,916,,,,3431:1,,2,-79.068303,43.870787,2,3431,Rossland Eastbound @ Shell,0,
916,916,,,,3430:1,,2,-79.06307049999998,43.8709498,2,3430,Rossland Eastbound @ Church,0,
916,916,,,,92015:1,,2,-79.061348,43.871325,2,92015,Eastbound @ 575 Rossland,0,
916,916,,,,2167:1,,2,-79.04948,43.874749,2,2167,Rossland Eastbound @ Stevensgate,0,
916,916,,,,2168:1,,2,-79.046516,43.87542,2,2168,Rossland Eastbound @ Pearce,0,
916,916,,,,2169:1,,1,-79.04190199999998,43.876463,1,2169,Rossland Eastbound @ Westney,0,
916,916,,,,3295:1,,1,-79.038698,43.877187,2,3295,Rossland Eastbound @ Seggar,0,
916,916,,,,3302:1,,2,-79.0334,43.878356,2,3302,Rossland Eastbound @ Woodcock,0,
916,916,,,,3314:1,,1,-79.0275635,43.8796476,2,3314,Rossland Eastbound @ Harwood,0,
916,916,,,,2171:1,,1,-79.019467,43.881463,1,2171,Rossland Eastbound @ Salem,0,
916,916,,,,2172:1,,1,-79.011115,43.883402,1,2172,Rossland Eastbound @ Rushworth,0,
916,916,,,,2173:1,,2,-79.007262,43.884305,2,2173,Rossland Eastbound @ Hilton,0,
916,916,,,,2174:1,,2,-79.004013,43.885035,2,2174,Rossland Eastbound @ Audley,0,
916,916,,,,2175:1,,1,-78.993144,43.887478,2,2175,Rossland Eastbound @ Lake Ridge,0,
916,916,,,,936081,,1,-78.983372,43.88980200000001,1,93608,Rossland Eastbound @ Des Newman,0,
916,916,,,,472:1,,1,-78.96458,43.89412,1,472,Rossland Eastbound @ Country Lane,0,
916,916,,,,473:1,,1,-78.959856,43.895243,2,473,Rossland Eastbound @ Cochrane,0,
916,916,,,,474:1,,2,-78.95613126641868,43.89609699482188,2,474,Rossland Eastbound @ Redoak,0,
916,916,,,,476:1,,1,-78.94953,43.89743,2,476,Rossland Eastbound @ Brock Street,0,
916,916,,,,477:1,,1,-78.944498,43.898728,2,477,Rossland Eastbound @ Civic Centre Drive,0,
916,916,,,,480:1,,1,-78.940539,43.899581,1,480,Rossland Eastbound @ Garden (Durham Region Headquarters),0,
916,916,,,,481:1,,1,-78.9356953,43.9006827,2,481,Rossland Eastbound @ Bassett,0,
916,916,,,,482:1,,1,-78.929591,43.902041,2,482,Rossland Eastbound @ Anderson,0,
916,916,,,,483:1,,1,-78.926736,43.90268300000001,2,483,Rossland Eastbound @ Overlord,0,
916,916,,,,484:1,,1,-78.92099,43.9039,2,484,Rossland Eastbound @ Thickson,0,
916,916,,,,485:1,,1,-78.916718,43.904922,2,485,Rossland Eastbound @ Canadian Oaks,0,
916,916,,,,486:1,,1,-78.9135536,43.9056983,2,486,Rossland Eastbound @ Orvis,0,
916,916,,,,487:1,,2,-78.911489,43.906151,1,487,Rossland Eastbound @ Garrard,0,
916,916,,,,569:1,,1,-78.886776,43.911558,2,569,Rossland Eastbound @ Gibbons,0,
916,916,,,,570:1,,1,-78.883718,43.912237,2,570,Rossland Eastbound @ Park,0,
916,916,,,,571:1,,1,-78.87504869999998,43.9141525,2,571,Rossland Eastbound @ Christie,0,
916,916,,,,573:1,,1,-78.8705428,43.9151538,2,573,Rossland Eastbound @ Simcoe,0,
916,916,,,,574:1,,2,-78.867671,43.915824,2,574,Rossland Eastbound @ Grierson,0,
916,916,,,,575:1,,1,-78.864739,43.916479,2,575,Rossland Eastbound @ Oshawa Boulevard,0,
916,916,,,,576:1,,1,-78.86071099999998,43.917332,1,576,Rossland Eastbound @ Ritson,0,
916,916,,,,577:1,,1,-78.856553,43.918411,2,577,Rossland Eastbound @ Central Park,0,
916,916,,,,93035:1,,1,-78.85475,43.91884000000001,2,93035,Rossland Eastbound @ Brentwood,0,
916,916,,,,581:1,,2,-78.852082,43.919467,1,581,Rossland Eastbound @ Wilson,0,
916,916,,,,582:1,,1,-78.84681,43.92071,2,582,Rossland Eastbound @ Camelot,0,
916,916,,,,583:1,,1,-78.843256,43.92152,2,583,Rossland Eastbound @ Harmony,0,
916,916,,,,586:1,,1,-78.843935,43.921478,2,586,Rossland Westbound @ Gladfern,0,
916,916,,,,587:1,,1,-78.846996,43.920769,2,587,Rossland Westbound @ Attersley,0,
916,916,,,,588:1,,1,-78.850545,43.91992900000001,1,588,Rossland Westbound @ Wilson,0,
916,916,,,,591:1,,1,-78.854902,43.918907,2,591,Rossland Westbound @ Terrace,0,
916,916,,,,592:1,,1,-78.857043,43.9184,2,592,Rossland Westbound @ Central Park,0,
916,916,,,,593:1,,1,-78.859627,43.917737,2,593,Westbound @ 354 Rossland,0,
916,916,,,,594:1,,1,-78.862066,43.917149,1,594,Rossland Westbound @ Ritson,0,
916,916,,,,595:1,,1,-78.864393,43.916682,2,595,Rossland Westbound @ Oshawa Boulevard,0,
916,916,,,,596:1,,2,-78.866933,43.916114,2,596,Rossland Westbound @ Minto,0,
916,916,,,,597:1,,1,-78.87191799999998,43.915011,2,597,Rossland Westbound @ Simcoe,0,
916,916,,,,598:1,,1,-78.87505779999998,43.9142915,2,598,Rossland Westbound @ Osler,0,
916,916,,,,599:1,,1,-78.883143,43.912489,2,599,Rossland Westbound @ Glencairn,0,
916,916,,,,600:1,,2,-78.885572,43.91198,2,600,Rossland Westbound @ Gibbons,0,
916,916,,,,602:1,,1,-78.89182099999998,43.910599,1,602,Rossland Westbound @ Stevenson,0,
916,916,,,,603:1,,1,-78.89659899999998,43.909586,2,603,Rossland Westbound @ Waverly,0,
916,916,,,,604:1,,1,-78.90127099999998,43.908595,2,604,Rossland Westbound @ Thornton,0,
916,916,,,,454:1,,1,-78.90711,43.907336,2,454,Rossland Westbound @ William Davidson,0,
916,916,,,,455:1,,2,-78.910464,43.906573,1,455,Rossland Westbound @ Garrard,0,
916,916,,,,456:1,,1,-78.912914,43.905972,2,456,Rossland Westbound @ Tamarisk,0,
916,916,,,,457:1,,1,-78.916926,43.905041,2,457,Rossland Westbound @ Fencerow,0,
916,916,,,,458:1,,1,-78.91971599999998,43.904395,2,458,Rossland Westbound @ Thickson,0,
916,916,,,,459:1,,1,-78.927091,43.90280400000001,2,459,Rossland Westbound @ Doulton,0,
916,916,,,,460:1,,1,-78.930008,43.90214933,2,460,Rossland Westbound @ Anderson,0,
916,916,,,,461:1,,1,-78.9353815,43.9009439,2,461,Rossland Westbound @ Bassett,0,
916,916,,,,462:1,,1,-78.939886,43.899906,1,462,Rossland Westbound @ Garden (Durham Region Headquarters),0,
916,916,,,,464:1,,1,-78.944604,43.898832,2,464,Rossland Westbound @ Civic Centre Drive,0,
916,916,,,,465:1,,1,-78.95003,43.89741,2,465,Rossland Westbound @ Brock Street,0,
916,916,,,,467:1,,1,-78.956033,43.89627,2,467,Rossland Westbound @ Whitburn,0,
916,916,,,,468:1,,1,-78.95936399999998,43.895555,2,468,Rossland Westbound @ Cochrane,0,
916,916,,,,469:1,,1,-78.964817,43.89427381,1,469,Rossland Westbound @ Country Lane,0,
916,916,,,,470:1,,2,-78.978819,43.891112,1,470,Rossland Westbound @ McQuay,0,
916,916,,,,936091,,1,-78.984482,43.889813,1,93609,Rossland Westbound @ Des Newman,0,
916,916,,,,2176:1,,1,-78.993369,43.887606,2,2176,Rossland Westbound @ Lake Ridge,0,
916,916,,,,2177:1,,2,-79.003906,43.885183,2,2177,Rossland Westbound @ Audley,0,
916,916,,,,2178:1,,2,-79.007121,43.884465,2,2178,Rossland Westbound @ Hilton,0,
916,916,,,,2179:1,,2,-79.01085999999998,43.883554,1,2179,Rossland Westbound @ Rushworth,0,
916,916,,,,2244:1,,1,-79.020109,43.881479,2,2244,Rossland Westbound @ Salem,0,
916,916,,,,3315:1,,1,-79.026765,43.880023,2,3315,Rossland Westbound @ Harwood,0,
916,916,,,,92041:1,,1,-79.03210199999998,43.878759,2,92041,Rossland Westbound @ Woodcock,0,
916,916,,,,92042:1,,1,-79.03495599999998,43.878137,2,92042,Rossland Westbound @ 128 Rossland,0,
916,916,,,,3294:1,,1,-79.03796199999998,43.87746400000001,2,3294,Rossland Westbound @ Seggar,0,
916,916,,,,3550:1,,2,-79.06323,43.87116000000001,2,3550,Rossland Westbound @ Church,0,
916,916,,,,3432:1,,2,-79.068386,43.870936,2,3432,Rossland Westbound @ Shell,0,
916,916,,,,3433:1,,2,-79.072756,43.870129,2,3433,Rossland Westbound @ Seagrave,0,
916,916,,,,3510:1,,2,-79.079043,43.868662,2,3510,Rossland Westbound @ Southcott,0,
916,916,,,,3367:1,,2,-79.077861,43.85522000000001,1,3367,Brock Road Southbound @ Major Oaks,0,
916,916,,,,1861:1,,1,-79.07651799999998,43.85219,2,1861,Southbound @ 2058 Brock Road (Brock Ridge Community Park),0,
916,916,,,,93191:1,,1,-79.07550836999998,43.85004333,2,93191,Brock Road Southbound @ Finch,0,
917,917,,,,941251,,1,-79.08561,43.83272,2,94125,Pickering Parkway Terminal Platform B13,0,
917,917,,,,1764:1,,1,-79.064971,43.833567,2,1764,Bayly Eastbound @ Toy,0,
917,917,,,,2004:1,,2,-79.05785441,43.83507642,2,2004,Bayly Eastbound @ Squires Beach,0,
917,917,,,,2299:1,,1,-79.04730836,43.83746702,1,2299,Bayly Eastbound @ Church,0,
917,917,,,,935961,,1,-79.02766,43.846555,2,93596,Southbound @ 160 Dowty,0,
917,917,,,,2334:1,,1,-79.026071,43.84603,2,2334,Hunt Eastbound @ Monarch,0,
917,917,,,,2335:1,,1,-79.02085099999998,43.84718500000001,2,2335,Hunt Eastbound @ Harwood,0,
917,917,,,,935571,,2,-78.97930599999998,43.852479,2,93557,Bayly Eastbound @ Lake Ridge,0,
917,917,,,,935581,,2,-78.974109,43.853654,2,93558,Victoria Eastbound @ Halls,0,
917,917,,,,935591,,2,-78.9532997,43.8581551,2,93559,Victoria Eastbound @ Seaboard Gate,0,
917,917,,,,3105:1,,2,-78.950286,43.858814,2,3105,Victoria Eastbound @ Bayside Gate,0,
917,917,,,,93115:1,,1,-78.9446226,43.8600147,1,93115,Victoria Eastbound @ Gordon (Abilities Centre),0,
917,917,,,,337:1,,1,-78.905592,43.872706,2,337,Stellar Eastbound @ Thickson,0,
917,917,,,,339:1,,2,-78.900059,43.871161,2,339,Durham College Whitby Campus,0,
917,917,,,,93276:1,,2,-78.878626,43.876345,2,93276,Champlain Westbound @ Fox,0,
917,917,,,,93257:1,,2,-78.885968,43.874044,2,93257,Champlain Westbound @ Thornton,0,
917,917,,,,340:1,,2,-78.889539,43.873198,2,340,Westbound @ 946 Champlain,0,
917,917,,,,342:1,,1,-78.905268,43.87293600000001,2,342,Stellar Westbound @ Thickson,0,
917,917,,,,90007:1,,1,-78.94369,43.860468,1,90007,Victoria Westbound @ Gordon (Abilities Centre),0,
917,917,,,,45:1,,2,-78.949545,43.859114,2,45,Victoria Westbound @ Montecorte,0,
917,917,,,,999961,,2,-78.953388,43.858353,2,93554,Victoria Westbound @ Jeffery,0,
917,917,,,,999951,,2,-78.973499,43.85395,2,93555,Victoria Westbound @ Halls,0,
917,917,,,,935561,,2,-78.979746,43.852679,2,93556,Bayly Westbound @ Lake Ridge,0,
917,917,,,,93158:1,,1,-78.98969099999998,43.850484,1,93158,Bayly Westbound @ Audley,0,
917,917,,,,93159:1,,1,-78.9937104,43.8495632,2,93159,Westbound @ 508 Bayly,0,
917,917,,,,2311:1,,1,-78.99802099999998,43.84862720000001,2,2311,Bayly Westbound @ Shoal Point,0,
917,917,,,,2312:1,,1,-79.00124,43.847892,2,2312,Bayly Westbound @ Boone,0,
917,917,,,,937061,,1,-79.02099699999998,43.847287,2,93706,Hunt Westbound @ Harwood,0,
917,917,,,,2327:1,,1,-79.026917,43.845931,2,2327,Hunt Westbound @ Dowty,0,
917,917,,,,935951,,1,-79.027375,43.846437,2,93595,Northbound @ 177 Dowty,0,
917,917,,,,2270:1,,1,-79.035459,43.84046,2,2270,Westney Southbound @ Bayly,0,
917,917,,,,2324:1,,1,-79.04777984,43.83755071,1,2324,Bayly Westbound @ Church,0,
917,917,,,,2323:1,,2,-79.05759999999998,43.83537,2,2323,Bayly Westbound @ Squires Beach,0,
917,917,,,,1765:1,,1,-79.0656863,43.8336033,2,1765,Bayly Westbound @ Toy,0,
920,920,,,,939981,,1,-79.258755,43.77431700000001,2,93998,Scarborough Centre Station,0,
920,920,,,,942421,,2,-79.25296,43.775294,2,94242,Triton Eastbound @ McCowan,0,
920,920,,,,939991,,2,-79.252857,43.776643,2,93999,McCowan Northbound @ Progress,0,
920,920,,,,940021,,2,-79.24343282725708,43.78017420754376,2,94002,Progress Eastbound @ Bellamy,0,
920,920,,,,940061,,2,-79.233259,43.781933,2,94006,Progress Eastbound @ Markham Road,0,
920,920,,,,940071,,2,-79.231618,43.783526,2,94007,Progress Northbound @ Centennial College,0,
920,920,,,,940091,,2,-79.23394999999998,43.789947,2,94009,Progress Northbound @ Milner Avenue,0,
920,920,,,,942361,,2,-79.215841,43.795607,2,94236,Milner Eastbound @ Neilson,0,
920,920,,,,942371,,2,-79.199407,43.800134,2,94237,Milner Eastbound @ Morningside,0,
920,920,,,,940291,,2,-79.171104,43.80818,2,94029,Sheppard Eastbound @ Meadowvale (West side stop),0,
920,920,,,,942471,,2,-78.925171,43.941682,2,94247,Conlin Eastbound @ Garrard,0,
920,920,,,,941991,,2,-78.900019,43.94703,2,94199,Conlin Eastbound @ Founders,0,
920,920,,,,942101,,2,-78.895029,43.948164,1,94210,Conlin Eastbound @ Simcoe,0,
920,920,,,,3541:1,,2,-78.891015,43.949,2,3541,Conlin Eastbound @ Bridle,0,
920,920,,,,853:1,,1,-78.885597,43.950158,2,853,Conlin Eastbound @ Avalon,0,
920,920,,,,854:1,,1,-78.881227,43.95115100000001,2,854,Conlin Eastbound @ Manor,0,
920,920,,,,855:1,,1,-78.877706,43.951962,2,855,Conlin Eastbound @ Ritson,0,
920,920,,,,896:1,,1,-78.878549,43.95187700000001,2,896,Conlin Westbound @ Ritson,0,
920,920,,,,897:1,,1,-78.881159,43.951264,2,897,Conlin Westbound @ Manor,0,
920,920,,,,898:1,,1,-78.88532,43.95035,2,898,Conlin Westbound @ Avalon,0,
920,920,,,,93064:1,,1,-78.8910235,43.9491175,2,93064,Conlin Westbound @ Bridle,0,
920,920,,,,942111,,2,-78.897454,43.947863,1,94211,Conlin Westbound @ Simcoe,0,
920,920,,,,941981,,2,-78.899893,43.94722800000001,2,94198,Conlin Westbound @ Founders,0,
920,920,,,,942481,,2,-78.925415,43.941728,2,94248,Conlin Westbound @ Garrard,0,
920,920,,,,942001,,2,-78.927378,43.91964,2,94200,Thickson Southbound @ Darren,0,
920,920,,,,942011,,2,-78.924996,43.914213,2,94201,Thickson Southbound @ Dryden,0,
920,920,,,,939691,,2,-79.170563,43.80852500000001,2,93969,Sheppard Westbound @ Meadowvale (East side stop),0,
920,920,,,,942331,,2,-79.19938,43.800447,2,94233,Morningside Southbound @ Sheppard,0,
920,920,,,,942341,,2,-79.21631600435,43.79567,2,94234,Milner Westbound @ Neilson,0,
920,920,,,,942351,,2,-79.23035,43.79112700000001,2,94235,Milner Westbound @ Dailing,0,
920,920,,,,939931,,2,-79.23197399999998,43.783468,2,93993,Progress Southbound @ Centennial College,0,
920,920,,,,939941,,2,-79.234801,43.781656,2,93994,Progress Westbound @ Markham Road,0,
920,920,,,,940541,,2,-79.2444,43.78018,2,94054,Progress Westbound @ Corporate Drive,0,
920,920,,,,939971,,2,-79.250532,43.775976,2,93997,Grangeway Southbound @ Progress,0,
920,920,,,,942161,,2,-79.255099,43.774202,2,94216,Town Centre @ Scarborough Centre Station,0,
N1,N1,,,,940671,,2,-79.19309199999998,43.785544,2,94067,Elesmere Westbound @ Moringside,0,
N1,N1,,,,940661,,1,-79.19394,43.78888,2,94066,Morningside Northbound @ Military Trail,0,
N2,N2,,,,944:1,,1,-78.881804,43.88983507,2,944,Stevenson Northbound @ Cartier (North side stop),0,