route_id,route_short_name,stop_id,stop_name,stop_lat,stop_lon,zone_id,stop_url,location_type,parent_station,wheelchair_boarding,stop_code
1,1,3497,3497,Fairway Station,,  43.421762, -80.441593,,https://www.grt.ca/en/schedules-maps/platform-layouts-ION-connections.aspx,0,place_FVM,1,5
1,1,1047,1047,Fairway / Highway 8,,  43.424030, -80.434555,,,0,,1,
1,1,1048,1048,Fairway / King,,  43.428891, -80.431861,,,0,,1,
1,1,1049,1049,Fairway / Morgan,,  43.430457, -80.431661,,,0,,2,
1,1,1050,1050,Fairway / Thaler,,  43.432231, -80.429915,,,0,,1,
1,1,1866,1866,163 Thaler Ave.,,  43.434155, -80.431120,,,0,,1,
1,1,3478,3478,Kinzie / Thaler,,  43.435733, -80.432436,,,0,,1,
1,1,3479,3479,River / Kinzie,,  43.437180, -80.430963,,,0,,1,
1,1,1664,1664,River / Old Chicopee,,  43.439126, -80.433075,,,0,,1,
1,1,1665,1665,River / Rennie,,  43.443117, -80.438995,,,0,,2,
1,1,1068,1068,River / Bradley,,  43.445875, -80.441342,,,0,,1,
1,1,1070,1070,River / Stanley Park Mall,,  43.449532, -80.443347,,,0,place_SPM,1,
1,1,1071,1071,River / Ottawa,,  43.451410, -80.444566,,,0,,1,
1,1,1072,1072,River / Path To Breckenridge,,  43.453361, -80.445834,,,0,,1,
1,1,3574,3574,River / Gibson,,  43.455051, -80.446980,,,0,,1,
1,1,1073,1073,River / Lorraine,,  43.457481, -80.449697,,,0,,1,
1,1,1074,1074,River / Manchester,,  43.458807, -80.454869,,,0,,1,
1,1,1079,1079,Frederick / Bruce,,  43.460075, -80.467862,,,0,,1,
1,1,2403,2403,Krug / East,,  43.452695, -80.472562,,,0,,1,
1,1,2404,2404,Krug / Lydia,,  43.451940, -80.474756,,,0,,1,
1,1,2405,2405,Krug / Samuel,,  43.451051, -80.477310,,,0,,1,
1,1,2407,2407,Krug / Lancaster,,  43.449825, -80.480781,,,0,,1,
1,1,5027,5027,Scott / Duke (Temporary Stop),,  43.449820, -80.485225,,,0,,1,
1,1,1088,1088,Frederick Station (Frederick / King),,  43.449425, -80.487672,,https://www.grt.ca/en/schedules-maps/platform-layouts-ION-connections.aspx,0,,1,
1,1,1089,1089,Queen Station (Benton / Charles),,  43.448585, -80.488358,,https://www.grt.ca/en/schedules-maps/platform-layouts-ION-connections.aspx,0,,1,
1,1,2713,2713,Benton / Church,,  43.447477, -80.489415,,,0,,1,
1,1,2714,2714,Benton / Courtland,,  43.445963, -80.491034,,,0,,1,
1,1,2754,2754,Queen / Courtland,,  43.445883, -80.493358,,,0,,1,
1,1,3069,3069,Queen / Schneider,,  43.444736, -80.494529,,,0,,1,
1,1,2755,2755,Queen / Homewood,,  43.442477, -80.496760,,,0,,1,
1,1,3293,3293,Queens / Highland,,  43.440388, -80.498829,,,0,,1,
1,1,3294,3294,Queens / Spadina,,  43.439222, -80.500050,,,0,,1,
1,1,3295,3295,Queens / St Marys Hospital,,  43.438518, -80.501662,,,0,,1,
1,1,3296,3296,Queens / Belmont,,  43.436671, -80.503543,,,0,,1,
1,1,3297,3297,Queens / Lakeside Park Trail,,  43.435277, -80.505964,,,0,,1,
1,1,3298,3298,Queens / Hahn,,  43.434171, -80.508271,,,0,,1,
1,1,3299,3299,Queens / Westmount,,  43.433281, -80.510860,,,0,,1,
1,1,3300,3300,Queens / Cecile,,  43.432160, -80.513934,,,0,,1,
1,1,3303,3303,Queens / Silverspring,,  43.430555, -80.517740,,,0,,1,
1,1,3304,3304,Queens / Eagen,,  43.429665, -80.520218,,,0,,1,
1,1,3306,3306,Queens / Fischer-Hallman,,  43.428557, -80.524341,,,0,,1,
1,1,3307,3307,Queens / Highland Hills Mall,,  43.427701, -80.526534,,,0,,1,
1,1,3308,3308,Elm Ridge / Queens,,  43.426652, -80.527592,,,0,,1,
1,1,3309,3309,Elm Ridge / Hillbrook,,  43.425680, -80.526446,,,0,,1,
1,1,3310,3310,Elm Ridge / Silver Aspen,,  43.423751, -80.525045,,,0,,1,
1,1,3311,3311,Elm Ridge / Ramblewood,,  43.422589, -80.522707,,,0,,1,
1,1,3461,3461,Mcgarry / Forestwood,,  43.421676, -80.522402,,,0,,2,
1,1,3472,3472,Mcgarry / Meadowbrook,,  43.420586, -80.525420,,,0,,2,
1,1,3317,3317,Mcgarry / Royal Orchard,,  43.419543, -80.528710,,,0,,1,
1,1,3471,3471,Westheights / Driftwood,,  43.418487, -80.535379,,,0,,1,
1,1,3469,3469,Driftwood / Westheights,,  43.419160, -80.539102,,,0,,2,
1,1,3368,3368,Driftwood / Highview,,  43.416892, -80.541108,,,0,,1,
1,1,3468,3468,Highview / Highview Pl.,,  43.416463, -80.543021,,,0,,2,
1,1,3384,3384,Highview / Sugar Maple,,  43.415693, -80.547503,,,0,,1,
1,1,3467,3467,Highview / Havenwood,,  43.415449, -80.550634,,,0,,2,
1,1,3476,3476,Ira Needles / Penelope,,  43.418397, -80.552660,,,0,,1,
1,1,1203,1203,Ira Needles / Highland,,  43.423499, -80.552559,,,0,,1,
1,1,3487,3487,Ira Needles / Highland Marketplace,,  43.425831, -80.552638,,,0,,1,
1,1,1101,1101,Ira Needles / Victoria,,  43.429422, -80.553174,,,0,,1,
1,1,3908,3908,The Boardwalk Station,,  43.435165, -80.560446,,https://www.grt.ca/en/schedules-maps/platform-layouts-ION-connections.aspx,0,place_TBW,1,
1,1,1095,1095,Ira Needles / Victoria,,  43.429193, -80.553309,,,0,,1,
1,1,3485,3485,Ira Needles / Highland Marketplace,,  43.425619, -80.552828,,,0,,1,
1,1,1180,1180,Ira Needles / Highland,,  43.423474, -80.552847,,,0,,1,
1,1,3473,3473,Ira Needles / Penelope,,  43.417617, -80.552963,,,0,,1,
1,1,3466,3466,Highview / Golden Meadow,,  43.415249, -80.550857,,,0,,2,
1,1,3329,3329,Highview / Sugar Maple,,  43.415683, -80.547219,,,0,,1,
1,1,3330,3330,Highview / Highview Pl.,,  43.416332, -80.542829,,,0,,1,
1,1,3331,3331,Driftwood / Rolling Meadows,,  43.417269, -80.540635,,,0,,1,
1,1,3332,3332,Driftwood / Westheights,,  43.419126, -80.538966,,,0,,1,
1,1,3470,3470,Westheights / Driftwood,,  43.418536, -80.534510,,,0,,1,
1,1,3335,3335,Mcgarry / Royal Orchard,,  43.419443, -80.528402,,,0,,1,
1,1,3337,3337,Mcgarry / Meadowbrook,,  43.420662, -80.524872,,,0,,1,
1,1,3338,3338,Mcgarry / Pinehurst,,  43.421552, -80.522419,,,0,,1,
1,1,3340,3340,Elm Ridge / Mcgarry,,  43.422638, -80.521583,,,0,,1,
1,1,3341,3341,Elm Ridge / Hickory Heights,,  43.424302, -80.525399,,,0,,1,
1,1,3342,3342,Elm Ridge / Hillbrook,,  43.425286, -80.526059,,,0,,1,
1,1,3637,3637,Elm Ridge / Queens,,  43.426986, -80.527689,,,0,,1,
1,1,3343,3343,Queens / Highland Hills Mall,,  43.427611, -80.526349,,,0,,1,
1,1,3482,3482,Queens / Fischer-Hallman,,  43.428490, -80.523995,,,0,,1,
1,1,3344,3344,Queens / Bonfair,,  43.429513, -80.520367,,,0,,1,
1,1,3345,3345,Queens / Silverspring,,  43.430242, -80.518150,,,0,,1,
1,1,3346,3346,Queens / Warren,,  43.431544, -80.515273,,,0,,1,
1,1,3347,3347,Queens / Cecile,,  43.432389, -80.512906,,,0,,1,
1,1,3348,3348,Queens / Westmount,,  43.433163, -80.510688,,,0,,1,
1,1,3349,3349,Queens / Blueridge,,  43.434062, -80.508198,,,0,,1,
1,1,3350,3350,Queens / Lakeside Park Trail,,  43.435205, -80.505841,,,0,,1,
1,1,3351,3351,Queens / Belmont,,  43.436330, -80.503793,,,0,,1,
1,1,3353,3353,Queens / St Marys Hospital,,  43.437677, -80.500903,,,0,,1,
1,1,3354,3354,Queens / Spadina,,  43.439347, -80.499690,,,0,,1,
1,1,3355,3355,Queens / Highland,,  43.440602, -80.498456,,,0,,1,
1,1,1982,1982,Queen / Woodside,,  43.441709, -80.497319,,,0,,1,
1,1,2705,2705,Queen / Schneider,,  43.444573, -80.494457,,,0,,1,
1,1,2706,2706,Queen / Courtland,,  43.445649, -80.493348,,,0,,1,
1,1,2410,2410,Benton / St George,,  43.446843, -80.489829,,,0,,1,
1,1,1377,1377,Queen Station (Benton / Charles),,  43.448153, -80.488377,,https://www.grt.ca/en/schedules-maps/platform-layouts-ION-connections.aspx,0,,1,
1,1,1000,1000,Frederick Station (Frederick / King),,  43.449674, -80.487209,,https://www.grt.ca/en/schedules-maps/platform-layouts-ION-connections.aspx,0,,1,
1,1,3575,3575,Frederick / Weber,,  43.451191, -80.486145,,,0,,1,
1,1,2359,2359,Weber / Scott,,  43.450444, -80.484347,,,0,,1,
1,1,3578,3578,Krug / Lancaster,,  43.449708, -80.480831,,,0,,1,
1,1,2361,2361,Krug / Samuel,,  43.450970, -80.477125,,,0,,2,
1,1,2362,2362,Krug / Lydia,,  43.451876, -80.474497,,,0,,1,
1,1,2363,2363,Krug / East,,  43.452658, -80.472290,,,0,,1,
1,1,1008,1008,Frederick / Bruce,,  43.460002, -80.467517,,,0,,1,
1,1,1012,1012,River / Manchester,,  43.458471, -80.454180,,,0,,1,
1,1,1013,1013,River / Lorraine,,  43.457265, -80.449484,,,0,,1,
1,1,1014,1014,River / Hickson,,  43.454293, -80.446678,,,0,,1,
1,1,1015,1015,River / Path To Secord,,  43.452848, -80.445727,,,0,,1,
1,1,1016,1016,River / Ottawa,,  43.451240, -80.444691,,,0,,1,
1,1,1017,1017,River / Stanley Park Mall,,  43.448711, -80.443145,,,0,,1,
1,1,1018,1018,River / Conway,,  43.447285, -80.442392,,,0,,1,
1,1,1019,1019,River / Bradley,,  43.445731, -80.441430,,,0,,2,
1,1,1693,1693,River / Rennie,,  43.442938, -80.439120,,,0,,2,
1,1,1694,1694,River / Old Chicopee,,  43.438965, -80.433213,,,0,,1,
1,1,3480,3480,Kinzie / River,,  43.436725, -80.431264,,,0,,1,
1,1,3477,3477,Thaler / Kinzie,,  43.435421, -80.432637,,,0,,1,
1,1,2619,2619,163 Thaler Ave.,,  43.434093, -80.431294,,,0,,1,
1,1,3481,3481,Fairway / Thaler,,  43.432515, -80.429865,,,0,,1,
1,1,1041,1041,Fairway / Morgan,,  43.430215, -80.431960,,,0,,1,
1,1,1042,1042,Fairway / King (East Side),,  43.428829, -80.432158,,,0,,1,
1,1,1043,1043,Fairway / King (West Side),,  43.427554, -80.432887,,,0,,1,
1,1,1044,1044,Fairway / Wabanaki,,  43.423315, -80.436234,,,0,,2,
10,10,3489,3489,Fairway Station,,  43.422477, -80.441518,,https://www.grt.ca/en/schedules-maps/platform-layouts-ION-connections.aspx,0,place_FVM,1,3
10,10,1697,1697,Wilson / Fairway,,  43.420562, -80.442748,,,0,,1,
10,10,1698,1698,Wilson / Webster,,  43.416238, -80.442393,,,0,,1,
10,10,1699,1699,805 Wilson Ave.,,  43.413465, -80.442492,,,0,,1,
10,10,1700,1700,915 Wilson Ave.,,  43.411167, -80.442056,,,0,,1,
10,10,1701,1701,Wabanaki / Kevco,,  43.409204, -80.442247,,,0,,2,
10,10,1703,1703,Manitou / Wabanaki,,  43.407490, -80.448853,,,0,,1,
10,10,1704,1704,421 Manitou Dr.,,  43.404093, -80.448370,,,0,,1,
10,10,1705,1705,Manitou / Cayuga,,  43.400959, -80.447693,,,0,,1,
10,10,1706,1706,Doon Village / Millwood,,  43.398043, -80.446832,,,0,,1,
10,10,1714,1714,Pioneer / Doon Village,,  43.395280, -80.445166,,,0,,1,
10,10,1715,1715,365 Pioneer Dr.,,  43.393939, -80.441634,,,0,,1,
10,10,1745,1745,Pioneer / Bechtel,,  43.393538, -80.436896,,,0,,1,
10,10,1717,1717,Pioneer / Pioneer Park Plaza,,  43.394268, -80.433370,,,0,,1,
10,10,1718,1718,Pioneer / Homer Watson,,  43.395609, -80.431518,,,0,,1,
10,10,1719,1719,Green Valley / Pioneer,,  43.396105, -80.429920,,,0,,1,
10,10,1720,1720,Green Valley / Arrowhead,,  43.395154, -80.427003,,,0,,1,
10,10,1721,1721,Green Valley / Mill Park,,  43.395896, -80.425897,,,0,,1,
10,10,1722,1722,Old Mill / Mill Park,,  43.394298, -80.417861,,,0,,1,
10,10,1723,1723,Old Mill / Pinnacle,,  43.393379, -80.414301,,,0,,2,
10,10,1724,1724,Pinnacle / Amherst,,  43.392191, -80.414313,,,0,,2,
10,10,1725,1725,Pinnacle / Doon Valley,,  43.389873, -80.415385,,,0,,2,
10,10,1726,1726,Doon Valley / Pinnacle,,  43.390018, -80.413750,,,0,,2,
10,10,1727,1727,Doon Valley / Conestoga College Blvd.,,  43.390819, -80.410190,,,0,,1,
10,10,1731,1731,Conestoga College Doon Campus - Recreation Centre,,  43.389642, -80.408066,,,0,,1,
10,10,1732,1732,Conestoga College Doon Campus - Door 3,,  43.390298, -80.403515,,,0,place_CCD,1,
10,10,1734,1734,Doon Valley / Orchard Mill,,  43.391213, -80.409815,,,0,,1,
10,10,1735,1735,Doon Valley / Pinnacle,,  43.390223, -80.413492,,,0,,2,
10,10,1736,1736,Pinnacle / Doon Valley,,  43.390035, -80.415309,,,0,,2,
10,10,1737,1737,Pinnacle / Amherst,,  43.391409, -80.414752,,,0,,2,
10,10,1738,1738,Pinnacle / Old Mill,,  43.393333, -80.414141,,,0,,1,
10,10,1739,1739,Old Mill / Roos,,  43.394224, -80.417516,,,0,,2,
10,10,1740,1740,Green Valley / Mill Park,,  43.395978, -80.426081,,,0,,1,
10,10,1741,1741,Green Valley / Arrowhead,,  43.395548, -80.428308,,,0,,1,
10,10,1742,1742,Green Valley / Pioneer,,  43.396113, -80.429760,,,0,,1,
10,10,1743,1743,Pioneer / Homer Watson,,  43.395655, -80.431641,,,0,,1,
10,10,1744,1744,Pioneer / Pioneer Park Plaza,,  43.394287, -80.433666,,,0,,1,
10,10,1746,1746,Pioneer / Bechtel,,  43.393664, -80.436994,,,0,,1,
10,10,1747,1747,365 Pioneer Dr.,,  43.394128, -80.441719,,,0,,1,
10,10,1748,1748,Pioneer / Doon Village,,  43.395327, -80.445548,,,0,,1,
10,10,1755,1755,Doon Village / Farrier,,  43.398295, -80.446706,,,0,,1,
10,10,1756,1756,Manitou / Homer Watson,,  43.399647, -80.447027,,,0,,1,
10,10,1757,1757,421 Manitou Dr.,,  43.404133, -80.448102,,,0,,1,
10,10,1758,1758,Manitou / Sasaga,,  43.406957, -80.448542,,,0,,1,
10,10,1759,1759,650 Wabanaki Dr.,,  43.408787, -80.443461,,,0,,2,
10,10,1760,1760,Wabanaki / Wilson,,  43.409272, -80.441283,,,0,,2,
10,10,1761,1761,915 Wilson Ave.,,  43.410895, -80.441725,,,0,,2,
10,10,1762,1762,808 Wilson Ave.,,  43.413473, -80.442319,,,0,,1,
10,10,1763,1763,Wilson / Goodrich,,  43.415409, -80.442277,,,0,,1,
10,10,1764,1764,Wilson / Fairway,,  43.420795, -80.442561,,,0,,1,
10,10,1824,1824,Pioneer / Pioneer Park Plaza,,  43.393903, -80.434238,,,0,,1,
10,10,1826,1826,100 Old Carriage Dr.,,  43.391312, -80.431101,,,0,,1,
10,10,1827,1827,Old Carriage / Homer Watson,,  43.390953, -80.427857,,,0,,1,
10,10,1867,1867,Homer Watson / Doon South,,  43.389695, -80.421983,,,0,,1,
10,10,3641,3641,Conestoga College Blvd. / Homer Watson,,  43.387941, -80.411329,,,0,,1,
10,10,2308,2308,Conestoga College Blvd. / Homer Watson,,  43.387478, -80.411963,,,0,,1,
10,10,1868,1868,Homer Watson / Doon South,,  43.389785, -80.421407,,,0,,1,
10,10,1828,1828,Old Carriage / Homer Watson,,  43.391026, -80.428054,,,0,,1,
10,10,1829,1829,100 Old Carriage Dr.,,  43.391502, -80.431285,,,0,,1,
10,10,1830,1830,Old Carriage / Pioneer Park Plaza,,  43.393700, -80.433314,,,0,,1,
110,110,3488,3488,Fairway Station,,  43.422430, -80.441812,,https://www.grt.ca/en/schedules-maps/platform-layouts-ION-connections.aspx,0,place_FVM,1,3
12,12,3493,3493,Fairway Station,,  43.421811, -80.441784,,https://www.grt.ca/en/schedules-maps/platform-layouts-ION-connections.aspx,0,place_FVM,1,4
12,12,1854,1854,Fairway / Wilson,,  43.420875, -80.444339,,,0,,2,
12,12,1855,1855,500 Fairway Rd. S.,,  43.420386, -80.447358,,,0,,1,
12,12,1856,1856,Fairway / Manitou,,  43.419685, -80.451490,,,0,,1,
12,12,1857,1857,Manitou / Courtland,,  43.418279, -80.453084,,,0,,1,
12,12,1858,1858,Manitou / Cress,,  43.416187, -80.450668,,,0,,1,
12,12,1860,1860,Manitou / Bleams,,  43.413074, -80.449514,,,0,,1,
12,12,1861,1861,Bleams / Otonabee,,  43.412298, -80.452643,,,0,,1,
12,12,3608,3608,Bleams / Fallowfield,,  43.411017, -80.457806,,,0,,1,
12,12,1862,1862,Bleams / Homer Watson,,  43.410487, -80.459922,,,0,,2,
12,12,1863,1863,Bleams / Century Hill,,  43.408790, -80.466706,,,0,,1,
12,12,2061,2061,Bleams / Strasburg,,  43.407019, -80.474509,,,0,,1,
12,12,2062,2062,Bleams / Colony,,  43.406018, -80.478937,,,0,,2,
12,12,2063,2063,Bleams / Thistledown,,  43.404496, -80.485265,,,0,,2,
12,12,2064,2064,Bleams / Path To Marlis,,  43.403020, -80.491312,,,0,,2,
12,12,3667,3667,Fischer-Hallman / Bleams,,  43.402260, -80.496638,,,0,,2,
12,12,3668,3668,Fischer-Hallman / Rockwood,,  43.404094, -80.497335,,,0,,1,
12,12,2065,2065,Westmount / Fischer-Hallman,,  43.406479, -80.498965,,,0,,1,
12,12,2066,2066,Westmount / Block Line,,  43.411584, -80.499692,,,0,,1,
12,12,3190,3190,Westmount / Williamsburg,,  43.413227, -80.500140,,,0,,1,
12,12,1695,1695,Westmount / Path To Williamsburg,,  43.415698, -80.500694,,,0,,2,
12,12,3191,3191,Westmount / Laurentian,,  43.417058, -80.501010,,,0,,1,
12,12,3192,3192,Westmount / Ottawa (South Side),,  43.419527, -80.501570,,,0,,1,
12,12,1428,1428,Westmount / Ottawa (North Side),,  43.420964, -80.501886,,,0,,1,
12,12,3193,3193,Westmount / Stonybrook,,  43.425501, -80.504486,,,0,,1,
12,12,3194,3194,Westmount / Village,,  43.427480, -80.506126,,,0,,1,
12,12,3195,3195,Westmount / Forest Hill,,  43.431030, -80.508852,,,0,,1,
12,12,3196,3196,Westmount / Queens,,  43.433313, -80.509884,,,0,,1,
12,12,3197,3197,Westmount / Overlea,,  43.435413, -80.512474,,,0,,1,
12,12,3909,3909,Westmount / Highland,,  43.436143, -80.514618,,,0,,1,
12,12,3910,3910,Westmount / Victoria,,  43.439835, -80.521076,,,0,,1,
12,12,3911,3911,Westmount / Brybeck,,  43.443694, -80.522479,,,0,,1,
12,12,3912,3912,Westmount / Westwood,,  43.446875, -80.522949,,,0,,1,
12,12,3913,3913,Westmount / Glasgow,,  43.449390, -80.523584,,,0,,1,
12,12,3914,3914,Westmount / Union,,  43.452433, -80.525711,,,0,,1,
12,12,2772,2772,Westmount / John,,  43.454449, -80.527611,,,0,,1,
12,12,2773,2773,Westmount / William,,  43.455896, -80.529083,,,0,,2,
12,12,2774,2774,Westmount / Alexandra,,  43.456840, -80.530917,,,0,,2,
12,12,2775,2775,Westmount / Lourdes,,  43.457422, -80.534670,,,0,,1,
12,12,4053,4053,Westmount / Erb,,  43.459688, -80.537102,,,0,,1,
12,12,2777,2777,50 Westmount Rd. N.,,  43.461174, -80.538338,,,0,,1,
12,12,2778,2778,Westmount / Father David Bauer,,  43.462455, -80.538921,,,0,,1,
12,12,2779,2779,Westmount / University Ave.,,  43.464046, -80.540591,,,0,,1,
12,12,2780,2780,University Ave. / Ring Rd.,,  43.466134, -80.540290,,,0,,1,
12,12,1090,1090,University Ave. / University Of Waterloo,,  43.469288, -80.538622,,,0,,1,
12,12,3943,3943,University Ave. / Phillip,,  43.472158, -80.535720,,,0,,1,
12,12,3945,3945,University Ave. / Sunview,,  43.473399, -80.532248,,,0,,1,
12,12,2783,2783,University Ave. / Hemlock,,  43.474134, -80.530314,,,0,,1,
12,12,3620,3620,University Ave. / Wilfrid Laurier University,,  43.475132, -80.527561,,,0,,1,
12,12,2785,2785,University Ave. / King,,  43.475834, -80.525454,,,0,place_KUN,1,
12,12,3621,3621,University Ave. / King,,  43.475775, -80.526369,,,0,place_KUN,1,
12,12,3619,3619,University Ave. / Wilfrid Laurier University,,  43.475241, -80.527906,,,0,,1,
12,12,2673,2673,University Ave. / Hemlock,,  43.474289, -80.530584,,,0,,1,
12,12,2674,2674,University Ave. / Sunview,,  43.473273, -80.533152,,,0,,1,
12,12,2675,2675,University Ave. / Phillip,,  43.472260, -80.536072,,,0,,1,
12,12,2676,2676,University Ave. / University Of Waterloo,,  43.468427, -80.539420,,,0,,1,
12,12,2677,2677,University Ave. / Ring Rd.,,  43.466189, -80.540574,,,0,,1,
12,12,2678,2678,Westmount / University Ave.,,  43.463866, -80.540629,,,0,,1,
12,12,2679,2679,Westmount / Westcourt,,  43.462185, -80.539035,,,0,,1,
12,12,2680,2680,Westmount / Erb,,  43.459043, -80.536846,,,0,,1,
12,12,2681,2681,Westmount / Lourdes,,  43.457614, -80.535336,,,0,,1,
12,12,2682,2682,Westmount / Dietz,,  43.456926, -80.532252,,,0,,2,
12,12,2683,2683,Westmount / William,,  43.455670, -80.529072,,,0,,2,
12,12,2685,2685,Westmount / John,,  43.454350, -80.527673,,,0,,1,
12,12,3920,3920,Westmount / Union,,  43.451756, -80.525370,,,0,,1,
12,12,3919,3919,Westmount / Glasgow,,  43.449174, -80.523697,,,0,,1,
12,12,3918,3918,Westmount / Westwood,,  43.446326, -80.523126,,,0,,1,
12,12,3917,3917,Westmount / Chopin,,  43.443119, -80.522657,,,0,,1,
12,12,3916,3916,Westmount / Victoria,,  43.439168, -80.520921,,,0,,1,
12,12,3915,3915,Westmount / Highland,,  43.436109, -80.515187,,,0,,1,
12,12,3178,3178,Westmount / Overlea,,  43.435287, -80.512549,,,0,,1,
12,12,3179,3179,Westmount / Queens,,  43.433621, -80.510277,,,0,,1,
12,12,3180,3180,Westmount / Forest Hill,,  43.430934, -80.509047,,,0,,1,
12,12,3086,3086,Westmount / Village,,  43.427779, -80.506556,,,0,,1,
12,12,3181,3181,Westmount / Stonybrook,,  43.425276, -80.504525,,,0,,1,
12,12,3182,3182,Westmount / Ottawa (North Side),,  43.420646, -80.502092,,,0,,1,
12,12,3183,3183,Westmount / Ottawa (South Side),,  43.419312, -80.501745,,,0,,1,
12,12,3184,3184,Westmount / Laurentian,,  43.416815, -80.501173,,,0,,1,
12,12,1696,1696,Westmount / Path To Williamsburg,,  43.415682, -80.500965,,,0,,2,
12,12,3185,3185,Westmount / Williamsburg,,  43.412768, -80.500218,,,0,,1,
12,12,2057,2057,Westmount / Block Line,,  43.411453, -80.499836,,,0,,1,
12,12,3503,3503,Fischer-Hallman / Max Becker,,  43.405643, -80.499298,,,0,,2,
12,12,3504,3504,Fischer-Hallman / Rockwood,,  43.403867, -80.497505,,,0,,2,
12,12,3505,3505,Fischer-Hallman / Bleams,,  43.402440, -80.496907,,,0,,2,
12,12,2058,2058,Bleams / Washburn,,  43.402722, -80.491867,,,0,,2,
12,12,2059,2059,Bleams / Trillium,,  43.404195, -80.485746,,,0,,2,
12,12,2060,2060,Bleams / Colony,,  43.405836, -80.478717,,,0,,2,
12,12,2105,2105,Bleams / Strasburg,,  43.406882, -80.474222,,,0,,1,
12,12,1846,1846,Bleams / Century Hill,,  43.408902, -80.465618,,,0,,1,
12,12,1847,1847,Bleams / Homer Watson,,  43.410352, -80.459899,,,0,,2,
12,12,3607,3607,Bleams / Fallowfield,,  43.411076, -80.456928,,,0,,1,
12,12,1848,1848,Bleams / Otonabee,,  43.412216, -80.452410,,,0,,2,
12,12,1849,1849,Bleams / Manitou,,  43.412547, -80.450109,,,0,,1,
12,12,1850,1850,Manitou / Webster,,  43.416377, -80.450655,,,0,,1,
12,12,1851,1851,Fairway / Manitou,,  43.419488, -80.451739,,,0,,1,
12,12,1852,1852,589 Fairway Rd. S.,,  43.419987, -80.448732,,,0,,2,
12,12,1853,1853,Fairway / Wilson,,  43.420530, -80.445627,,,0,,2,
12,12,4094,4094,Ottawa / Westmount,,  43.420398, -80.501245,,,0,,1,
13,13,1262,1262,University Of Waterloo Station,,  43.474181, -80.540782,,https://www.grt.ca/en/schedules-maps/platform-layouts-ION-connections.aspx,0,,1,3
13,13,2531,2531,Columbia / University Of Waterloo,,  43.474521, -80.547292,,,0,,1,
13,13,1096,1096,Columbia / U.W. - Village 1,,  43.473164, -80.550994,,,0,,1,
13,13,1097,1097,Columbia / U.W. - Ron Eydt Village,,  43.471578, -80.555395,,,0,,1,
13,13,1098,1098,Columbia / Old Post,,  43.470136, -80.559609,,,0,,1,
13,13,1099,1099,Columbia / U.W. - Columbia Lake Village,,  43.469601, -80.561087,,,0,,1,
13,13,4026,4026,Columbia / Fischer-Hallman,,  43.467918, -80.565836,,,0,,1,
13,13,4076,4076,Fischer-Hallman / Gatestone,,  43.470125, -80.568261,,,0,,1,
13,13,4077,4077,Fischer-Hallman / Path To Laurel Gate,,  43.472401, -80.570773,,,0,,2,
13,13,4078,4078,Fischer-Hallman / Laurelwood,,  43.473806, -80.571921,,,0,,1,
13,13,4027,4027,Laurelwood / Bearinger,,  43.474920, -80.572785,,,0,,1,
13,13,4079,4079,Laurelwood / Beaver Creek Rd.,,  43.472393, -80.579444,,,0,,1,
13,13,4080,4080,Laurelwood / Brookmill,,  43.471801, -80.583771,,,0,,2,
13,13,4081,4081,Laurelwood / Holly View,,  43.472747, -80.586380,,,0,,2,
13,13,4082,4082,Laurelwood / Birchmount,,  43.472779, -80.590222,,,0,,2,
13,13,4083,4083,Laurelwood / Erbsville,,  43.471455, -80.592724,,,0,,1,
13,13,4014,4014,Laurelwood / Laurel Heights Secondary School,,  43.470298, -80.594734,,,0,,1,
13,13,4084,4084,Erbsville / Path To Wild Ginger,,  43.469048, -80.591051,,,0,,2,
13,13,4086,4086,Erbsville / White Elm,,  43.466466, -80.586102,,,0,,1,
13,13,3454,3454,Erbsville / Columbia Forest,,  43.464907, -80.584198,,,0,,2,
13,13,3455,3455,Erbsville / Columbia,,  43.462258, -80.581299,,,0,,1,
13,13,4087,4087,Erbsville / Brandenburg,,  43.459621, -80.578428,,,0,,1,
13,13,3456,3456,Erbsville / Leighland,,  43.458043, -80.576722,,,0,,2,
13,13,3446,3446,Erbsville / Keats Way,,  43.455769, -80.574335,,,0,,1,
13,13,1979,1979,Erbsville / Path To Erbsville Ct.,,  43.453278, -80.572062,,,0,,2,
13,13,1980,1980,Erbsville / Brandenburg,,  43.451338, -80.572191,,,0,,1,
13,13,1981,1981,Erbsville / Chablis,,  43.450043, -80.572769,,,0,,2,
13,13,3685,3685,Erbsville / Westside Marketplace,,  43.447909, -80.572635,,,0,,1,
13,13,3906,3906,Ira Needles / Erb,,  43.445424, -80.570484,,,0,,1,
13,13,3904,3904,Ira Needles / Thorndale,,  43.442339, -80.565814,,,0,,1,
13,13,1034,1034,The Boardwalk / Medical Centre,,  43.440152, -80.565634,,,0,,1,
13,13,3901,3901,330 The Boardwalk,,  43.437652, -80.562988,,,0,,1,
13,13,4002,4002,The Boardwalk Station,,  43.435195, -80.560764,,https://www.grt.ca/en/schedules-maps/platform-layouts-ION-connections.aspx,0,place_TBW,1,
13,13,1040,1040,330 The Boardwalk,,  43.437851, -80.562986,,,0,,1,
13,13,1037,1037,The Boardwalk / Medical Centre,,  43.440251, -80.565484,,,0,,1,
13,13,3903,3903,Ira Needles / Thorndale,,  43.442443, -80.565654,,,0,,1,
13,13,3905,3905,Ira Needles / Erb,,  43.446101, -80.570733,,,0,,1,
13,13,3689,3689,Erbsville / Westside Marketplace,,  43.448007, -80.572486,,,0,,1,
13,13,3690,3690,Erbsville / Royal Beech,,  43.451373, -80.571868,,,0,,1,
13,13,3691,3691,Erbsville / Path To Erbsville Ct.,,  43.453291, -80.571930,,,0,,2,
13,13,3451,3451,Erbsville / Keats Way,,  43.455452, -80.573674,,,0,,1,
13,13,3452,3452,Erbsville / Leighland,,  43.457936, -80.576384,,,0,,2,
13,13,4088,4088,Erbsville / Cornridge,,  43.460348, -80.578865,,,0,,1,
13,13,3453,3453,Erbsville / Columbia,,  43.462441, -80.581180,,,0,,1,
13,13,1106,1106,Erbsville / Willow Wood,,  43.465177, -80.584196,,,0,,1,
13,13,3392,3392,Erbsville / White Elm,,  43.466696, -80.586090,,,0,,1,
13,13,4085,4085,Erbsville / Path To Wild Ginger,,  43.469162, -80.590865,,,0,,1,
13,13,1107,1107,Laurelwood / Erbsville,,  43.471465, -80.592474,,,0,,1,
13,13,1108,1108,Laurelwood / Birchmount,,  43.472760, -80.589510,,,0,,1,
13,13,1109,1109,Laurelwood / Brookmill,,  43.472050, -80.585101,,,0,,1,
13,13,1110,1110,Laurelwood / Beaver Creek Cres.,,  43.471623, -80.581593,,,0,,1,
13,13,1111,1111,Laurelwood / Beaver Creek Rd.,,  43.472237, -80.579400,,,0,,2,
13,13,1112,1112,Laurelwood / Laurel Gate,,  43.474326, -80.574588,,,0,,1,
13,13,3949,3949,Laurelwood / Fischer-Hallman,,  43.474804, -80.572545,,,0,,1,
13,13,1113,1113,Fischer-Hallman / Path To Laurel Gate,,  43.472557, -80.571127,,,0,,1,
13,13,1114,1114,Fischer-Hallman / Gatestone,,  43.470685, -80.569001,,,0,,1,
13,13,1115,1115,Fischer-Hallman / Columbia,,  43.468562, -80.567137,,,0,,1,
13,13,1116,1116,Columbia / Fischer-Hallman,,  43.467996, -80.564977,,,0,,2,
13,13,1117,1117,Columbia / U.W. - Columbia Lake Village,,  43.469100, -80.561792,,,0,,1,
13,13,1118,1118,Columbia / Old Post,,  43.469866, -80.559697,,,0,,1,
13,13,1119,1119,Columbia / U.W. - Ron Eydt Village,,  43.471390, -80.555470,,,0,,2,
13,13,1120,1120,Columbia / U.W. - Village 1,,  43.473171, -80.550487,,,0,,1,
13,13,3899,3899,Columbia / University Of Waterloo,,  43.474470, -80.546595,,,0,,1,
13,13,1223,1223,University Of Waterloo Station,,  43.474032, -80.540437,,https://www.grt.ca/en/schedules-maps/platform-layouts-ION-connections.aspx,0,,1,4
14,14,3800,3800,Conestoga Station,,  43.498423, -80.529136,,https://www.grt.ca/en/schedules-maps/platform-layouts-ION-connections.aspx,0,place_CML,1,
14,14,1205,1205,Davenport / Old Abbey,,  43.499948, -80.525624,,,0,,1,
14,14,1206,1206,Davenport / Northfield (South Side),,  43.503147, -80.528270,,,0,,1,
14,14,1207,1207,Davenport / Northfield (North Side),,  43.503923, -80.528722,,,0,,1,
14,14,1208,1208,Frobisher / Davenport,,  43.505366, -80.529218,,,0,,2,
14,14,1209,1209,151 Frobisher Dr.,,  43.506063, -80.528000,,,0,,2,
14,14,1210,1210,Frobisher / Mcmurray,,  43.507093, -80.526706,,,0,,2,
14,14,1215,1215,Mcmurray / Northland,,  43.508948, -80.528475,,,0,,2,
14,14,1216,1216,Mcmurray / Bathurst,,  43.511010, -80.530764,,,0,,2,
14,14,1217,1217,Bathurst / Rankin,,  43.510248, -80.533955,,,0,,2,
14,14,1218,1218,Rupert / Bathurst,,  43.508980, -80.536600,,,0,,2,
14,14,1219,1219,Northland / Rupert,,  43.506604, -80.534457,,,0,,1,
14,14,1220,1220,Northland / Bathurst,,  43.505878, -80.535622,,,0,,2,
14,14,3847,3847,610 King St. N.,,  43.503592, -80.535701,,,0,,2,
14,14,1212,1212,Kraus / Northfield,,  43.501482, -80.530621,,,0,,2,
16,16,3746,3746,Pioneer / Bechtel,,  43.393708, -80.436697,,,0,,2,
16,16,1831,1831,Bechtel / Doon Village,,  43.391835, -80.440431,,,0,,1,
16,16,1710,1710,Bechtel / Anvil,,  43.389984, -80.444893,,,0,,1,
16,16,1711,1711,Bechtel / Wheatfield,,  43.389726, -80.449377,,,0,,1,
16,16,1832,1832,Black Walnut / Pioneer,,  43.391518, -80.451188,,,0,,1,
16,16,1833,1833,Black Walnut / Carlyle,,  43.392799, -80.453585,,,0,,1,
16,16,1834,1834,Black Walnut / Biehn,,  43.393257, -80.455272,,,0,,1,
16,16,1835,1835,Biehn / Carlyle,,  43.395482, -80.455376,,,0,,1,
16,16,1836,1836,Biehn / Old Huron,,  43.397167, -80.455632,,,0,,1,
16,16,1837,1837,Old Huron / Maxwell,,  43.397269, -80.458138,,,0,,1,
16,16,1838,1838,Old Huron / Battler,,  43.395930, -80.460583,,,0,,2,
16,16,3843,3843,Huron / Templewood,,  43.394108, -80.464606,,,0,,2,
16,16,1839,1839,Huron / Strasburg,,  43.392649, -80.465724,,,0,,1,
16,16,1840,1840,Strasburg / Huron Heights Secondary School,,  43.394883, -80.467852,,,0,place_HHS,1,
16,16,1841,1841,Strasburg / Battler,,  43.398708, -80.467300,,,0,,2,
16,16,1842,1842,Strasburg / Trillium,,  43.400952, -80.467873,,,0,,2,
16,16,1844,1844,Strasburg / Mcintyre,,  43.404563, -80.473622,,,0,,1,
16,16,1845,1845,Strasburg / Shoemaker,,  43.405989, -80.474387,,,0,,1,
16,16,1864,1864,Strasburg / Bleams,,  43.407649, -80.475028,,,0,,1,
16,16,1865,1865,Strasburg / Old Country,,  43.411057, -80.476073,,,0,,1,
16,16,1666,1666,Strasburg / Forest Glen Plaza,,  43.413977, -80.477572,,,0,,1,
16,16,3017,3017,Strasburg / Block Line,,  43.416217, -80.480117,,,0,,1,
16,16,3018,3018,Strasburg / Blackhorne,,  43.417113, -80.481159,,,0,,1,
16,16,3019,3019,Strasburg / Selkirk,,  43.418679, -80.482863,,,0,,1,
16,16,3020,3020,Strasburg / Kingswood,,  43.421005, -80.485437,,,0,,1,
16,16,2906,2906,Ottawa / Strasburg,,  43.422937, -80.486743,,,0,,1,
16,16,2907,2907,Ottawa / Alpine,,  43.425117, -80.483639,,,0,,1,
16,16,2908,2908,Ottawa / Imperial,,  43.429297, -80.481339,,,0,,1,
16,16,3054,3054,Hoffman / Ottawa,,  43.431911, -80.480007,,,0,,1,
16,16,3055,3055,Hoffman / Meinzinger,,  43.432086, -80.482675,,,0,,1,
16,16,3056,3056,Hoffman / Kehl,,  43.431419, -80.484707,,,0,,1,
16,16,3057,3057,Hoffman / Highland,,  43.430566, -80.487086,,,0,,1,
16,16,3058,3058,Highland / Heiman,,  43.432942, -80.488820,,,0,,1,
16,16,2338,2338,Highland / Path To Charles Best,,  43.435025, -80.490186,,,0,,2,
16,16,2309,2309,Stirling / Highland,,  43.436376, -80.490813,,,0,,1,
16,16,5026,5026,Mill / Spadina (Temporary Stop),,  43.439538, -80.489697,,,0,,2,
16,16,2757,2757,Highland / West,,  43.441320, -80.502059,,,0,,1,
16,16,2758,2758,Highland / Patricia,,  43.440713, -80.505277,,,0,,1,
16,16,2759,2759,Belmont / Highland,,  43.440031, -80.507989,,,0,,1,
16,16,2760,2760,Belmont / Metzloff,,  43.441036, -80.509142,,,0,,1,
16,16,2761,2761,Belmont / Jack,,  43.442303, -80.510664,,,0,,1,
16,16,2762,2762,Belmont / Victoria,,  43.443488, -80.511965,,,0,,1,
16,16,2763,2763,Belmont / Karn,,  43.445185, -80.512890,,,0,,1,
16,16,2764,2764,Belmont / Gage,,  43.447738, -80.514155,,,0,,1,
16,16,2765,2765,564 Belmont Ave. W.,,  43.450167, -80.515755,,,0,,1,
16,16,2766,2766,Belmont / Glasgow,,  43.451811, -80.516841,,,0,,1,
16,16,2767,2767,Belmont / Claremont,,  43.453598, -80.517952,,,0,,1,
16,16,1958,1958,Belmont / Union,,  43.455034, -80.518879,,,0,,1,
16,16,3281,3281,Union / Park,,  43.457454, -80.516051,,,0,,1,
16,16,1934,1934,King / Union,,  43.458801, -80.516309,,,0,,1,
16,16,1904,1904,Allen Station,,  43.460285, -80.518884,,,0,,1,
16,16,1907,1907,Waterloo Public Square Station,,  43.464686, -80.522067,,https://www.grt.ca/en/schedules-maps/platform-layouts-ION-connections.aspx,0,,1,
16,16,2938,2938,Strasburg / Ottawa,,  43.422445, -80.487328,,,0,,1,
16,16,2939,2939,Strasburg / Barwood,,  43.420898, -80.485636,,,0,,1,
16,16,2940,2940,Strasburg / Selkirk,,  43.418725, -80.483184,,,0,,1,
16,16,2941,2941,Strasburg / Blackhorne,,  43.416689, -80.480916,,,0,,1,
16,16,2884,2884,Strasburg / Block Line,,  43.415539, -80.479567,,,0,,1,
16,16,1548,1548,Strasburg / Forest Glen Plaza,,  43.414164, -80.478088,,,0,,1,
16,16,1773,1773,Strasburg / Old Country,,  43.410878, -80.476222,,,0,,1,
16,16,1774,1774,Strasburg / Bleams,,  43.407406, -80.475153,,,0,,1,
16,16,1776,1776,Strasburg / Shoemaker,,  43.405629, -80.474415,,,0,,1,
16,16,1804,1804,Strasburg / Mcintyre,,  43.404184, -80.473440,,,0,,1,
16,16,1805,1805,Strasburg / Trillium,,  43.401757, -80.468583,,,0,,1,
16,16,1806,1806,Strasburg / Battler,,  43.398646, -80.467548,,,0,,1,
16,16,1807,1807,Strasburg / Huron Heights Secondary School,,  43.394632, -80.467953,,,0,place_HHS,1,
16,16,1022,1022,Huron / Strasburg,,  43.392906, -80.465135,,,0,,1,
16,16,3844,3844,Huron / Templewood,,  43.394550, -80.464015,,,0,,1,
16,16,1809,1809,Battler / Old Huron,,  43.395970, -80.461447,,,0,,1,
16,16,1810,1810,Old Huron / Maxwell,,  43.397214, -80.457941,,,0,,2,
16,16,1811,1811,Biehn / Carlyle,,  43.396023, -80.455507,,,0,,2,
16,16,1812,1812,Biehn / Maxwell,,  43.394402, -80.455558,,,0,,2,
16,16,1820,1820,Black Walnut / Biehn,,  43.393140, -80.455162,,,0,,1,
16,16,1821,1821,Black Walnut / Black Walnut Pl.,,  43.392528, -80.453365,,,0,,1,
16,16,1822,1822,Black Walnut / Pioneer,,  43.391363, -80.450683,,,0,,1,
16,16,1751,1751,Bechtel / Sabrina,,  43.389137, -80.448543,,,0,,1,
16,16,1752,1752,Bechtel / Anvil,,  43.389999, -80.444386,,,0,,1,
16,16,1823,1823,Bechtel / Doon Village,,  43.391959, -80.439936,,,0,,1,
16,16,4099,4099,Bridgeport Rd. / Albert,,  43.467480, -80.524765,,,0,,1,
16,16,1270,1270,Willis Way Station,,  43.462110, -80.523307,,https://www.grt.ca/en/schedules-maps/platform-layouts-ION-connections.aspx,0,,1,
16,16,3743,3743,William / Caroline,,  43.461088, -80.521898,,,0,,1,
16,16,2536,2536,Allen Station,,  43.460275, -80.519381,,https://www.grt.ca/en/schedules-maps/platform-layouts-ION-connections.aspx,0,,1,
16,16,2538,2538,King / Union,,  43.458278, -80.515245,,,0,,1,
16,16,1272,1272,Grand River Hospital Station,,  43.457379, -80.513581,,https://www.grt.ca/en/schedules-maps/platform-layouts-ION-connections.aspx,0,place_GRH,1,
16,16,1922,1922,Park / Union,,  43.456625, -80.515869,,,0,,2,
16,16,2689,2689,Belmont / Union,,  43.454908, -80.519054,,,0,,1,
16,16,3897,3897,Belmont / Glasgow,,  43.451992, -80.517198,,,0,,1,
16,16,2692,2692,545 Belmont Ave. W.,,  43.450417, -80.516163,,,0,,1,
16,16,2693,2693,Belmont / Path To Marina,,  43.449410, -80.515489,,,0,,1,
16,16,2694,2694,Belmont / Gage,,  43.447604, -80.514292,,,0,,1,
16,16,2695,2695,Belmont / Karn,,  43.445041, -80.512978,,,0,,1,
16,16,2696,2696,Belmont / Victoria,,  43.443236, -80.512016,,,0,,1,
16,16,2697,2697,Belmont / Edgewood,,  43.442213, -80.510764,,,0,,1,
16,16,2698,2698,Belmont / Metzloff,,  43.441154, -80.509512,,,0,,1,
16,16,2699,2699,Belmont / Highland,,  43.440150, -80.508371,,,0,,1,
16,16,2701,2701,Highland / Patricia,,  43.440507, -80.505526,,,0,,1,
16,16,2702,2702,Highland / West,,  43.441214, -80.501585,,,0,,1,
16,16,5025,5025,Mill / Spadina (Temporary Stop),,  43.439406, -80.489711,,,0,,2,
16,16,2402,2402,Highland / Stirling,,  43.435988, -80.491019,,,0,,1,
16,16,2334,2334,Highland / Path To Charles Best,,  43.434718, -80.490172,,,0,,1,
16,16,2406,2406,Highland / Heiman,,  43.432651, -80.488844,,,0,,1,
16,16,3063,3063,Hoffman / Highland,,  43.430538, -80.486876,,,0,,1,
16,16,3064,3064,Hoffman / Kehl,,  43.431258, -80.484930,,,0,,1,
16,16,3065,3065,Hoffman / Meinzinger,,  43.431978, -80.482700,,,0,,1,
16,16,3067,3067,Hoffman / Ottawa,,  43.431793, -80.479774,,,0,,1,
16,16,2935,2935,Ottawa / Kehl,,  43.429713, -80.481595,,,0,,1,
16,16,2937,2937,Ottawa / Alpine,,  43.425105, -80.484081,,,0,,1,
16,16,3229,3229,Ottawa / Strasburg,,  43.422940, -80.487336,,,0,,1,
19,19,1167,1167,Hazel / Wilfrid Laurier University,,  43.475522, -80.528263,,,0,,1,
19,19,1168,1168,Hazel / Hickory,,  43.477888, -80.530037,,,0,,1,
19,19,1171,1171,Hazel / Columbia,,  43.479577, -80.531347,,,0,,1,
19,19,1172,1172,Hazel / Austin,,  43.481547, -80.532927,,,0,,1,
19,19,1173,1173,Hazel / Smallwood,,  43.483102, -80.534313,,,0,,1,
19,19,1174,1174,Hazel / Blythwood,,  43.485679, -80.537298,,,0,,1,
19,19,1175,1175,Hazel / Albert,,  43.485742, -80.539437,,,0,,1,
19,19,1176,1176,Albert / Greenbrier,,  43.488154, -80.541397,,,0,,1,
19,19,1177,1177,Albert / Longwood,,  43.490549, -80.539178,,,0,,1,
19,19,1178,1178,Weber / Albert,,  43.492047, -80.537645,,,0,,1,
19,19,2460,2460,Weber / Parkside,,  43.492931, -80.544276,,,0,place_NORT,2,
19,19,3776,3776,560 Parkside Dr.,,  43.494925, -80.544486,,,0,place_NORT,2,
19,19,3777,3777,Parkside / Northfield,,  43.496897, -80.545818,,,0,place_NORT,1,
19,19,3324,3324,Parkside / Waterloo Corporate Campus - South,,  43.498388, -80.546777,,,0,,1,
19,19,3325,3325,Parkside / Waterloo Corporate Campus - North,,  43.498294, -80.549454,,,0,,1,
19,19,3326,3326,Weber / Golden Eagle,,  43.499024, -80.551385,,,0,,2,
19,19,3319,3319,Randall / Weber,,  43.500974, -80.552459,,,0,,1,
19,19,3320,3320,Randall / Conrad,,  43.502078, -80.549327,,,0,,1,
19,19,3321,3321,Randall / Kumpf,,  43.503730, -80.544740,,,0,,1,
19,19,3322,3322,585 Kumpf Dr.,,  43.501287, -80.542896,,,0,,2,
19,19,3323,3323,Kumpf / Northfield,,  43.498652, -80.543127,,,0,place_NORT,2,
19,19,3327,3327,Weber / Randall,,  43.501116, -80.552948,,,0,,2,
19,19,2353,2353,Weber / Swallow,,  43.502818, -80.554074,,,0,,2,
19,19,3833,3833,Farmers Market Rd. / St Jacobs Market,,  43.509884, -80.555806,,,0,,1,
19,19,1256,1256,Northfield Station,,  43.497825, -80.544338,,https://www.grt.ca/en/schedules-maps/platform-layouts-ION-connections.aspx,0,place_NORT,1,
19,19,2574,2574,Parkside / Northfield,,  43.496581, -80.545805,,,0,place_NORT,1,
19,19,2455,2455,551 Parkside Dr.,,  43.494494, -80.544513,,,0,,2,
19,19,2456,2456,Weber / Parkside,,  43.492716, -80.544095,,,0,,1,
19,19,1155,1155,Albert / Weber,,  43.491560, -80.537562,,,0,,1,
19,19,1156,1156,Albert / Longwood,,  43.490542, -80.539512,,,0,,1,
19,19,1157,1157,Albert / Quiet,,  43.487642, -80.541574,,,0,,1,
19,19,1158,1158,Hazel / Albert,,  43.485732, -80.539091,,,0,,1,
19,19,1159,1159,Hazel / Tamarack,,  43.484970, -80.536650,,,0,,1,
19,19,1160,1160,Hazel / Smallwood,,  43.483274, -80.534707,,,0,,1,
19,19,1161,1161,Hazel / Austin,,  43.481583, -80.533088,,,0,,1,
19,19,3623,3623,Hazel / Columbia,,  43.480093, -80.531912,,,0,,1,
19,19,1162,1162,Hazel / Waterloo Collegiate Institute,,  43.478955, -80.531043,,,0,,1,
19,19,1163,1163,Hazel / Hickory,,  43.477907, -80.530223,,,0,,1,
19,19,3682,3682,Hazel / Wilfrid Laurier University,,  43.475353, -80.528337,,,0,,1,
19,19,1264,1264,University Of Waterloo Station,,  43.474485, -80.539877,,https://www.grt.ca/en/schedules-maps/platform-layouts-ION-connections.aspx,0,,1,5
19,19,2354,2354,40 Benjamin Rd.,,  43.507360, -80.554887,,,0,,2,
19,19,2355,2355,Weber / Swallow,,  43.502775, -80.554396,,,0,,2,
19,19,2356,2356,Weber / Randall,,  43.500616, -80.552907,,,0,,2,
19,19,2357,2357,Weber / Golden Eagle,,  43.498905, -80.551702,,,0,,2,
19,19,2364,2364,Parkside / Waterloo Corporate Campus - North,,  43.498038, -80.549772,,,0,,1,
19,19,2365,2365,Parkside / Waterloo Corporate Campus - South,,  43.498037, -80.546747,,,0,,1,
20,20,2373,2373,Lorraine / Birkshire,,  43.457830, -80.448265,,,0,,1,
20,20,2389,2389,Confederation / Lorraine,,  43.460350, -80.442371,,,0,,1,
20,20,3561,3561,Halifax / Confederation,,  43.461780, -80.445466,,,0,,2,
20,20,2344,2344,Natchez / Halifax,,  43.464515, -80.445312,,,0,,1,
20,20,2345,2345,Natchez / Matthew,,  43.465736, -80.446376,,,0,,1,
20,20,2346,2346,Natchez / Rothsay,,  43.467960, -80.448321,,,0,,2,
20,20,1692,1692,Victoria / Natchez,,  43.468861, -80.450109,,,0,,1,
20,20,2348,2348,Victoria / Forfar,,  43.467369, -80.454496,,,0,,1,
20,20,3560,3560,Frederick / Victoria,,  43.465483, -80.458260,,,0,,2,
20,20,2350,2350,Frederick / Turner,,  43.464190, -80.459287,,,0,,1,
20,20,1076,1076,Frederick / River,,  43.461930, -80.461962,,,0,,1,
20,20,1077,1077,Frederick / Lois,,  43.461184, -80.464354,,,0,,1,
20,20,1081,1081,Frederick / Ann,,  43.459374, -80.470093,,,0,,1,
20,20,1080,1080,Frederick / Frederick Mall,,  43.458522, -80.472758,,,0,,1,
20,20,1082,1082,Frederick / Filbert,,  43.456532, -80.476620,,,0,,1,
20,20,1084,1084,Frederick / Gordon,,  43.454791, -80.479898,,,0,,1,
20,20,1085,1085,Frederick / Lancaster,,  43.453515, -80.482381,,,0,,1,
20,20,1086,1086,Frederick / Region Of Waterloo Headquarters,,  43.452407, -80.484442,,,0,,1,
20,20,5029,5029,Frederick Station (Duke / Frederick),,  43.450091, -80.486157,,,0,,1,
20,20,1879,1879,Kitchener City Hall Station,,  43.452340, -80.491741,,https://www.grt.ca/en/schedules-maps/platform-layouts-ION-connections.aspx,0,,1,
20,20,1894,1894,Duke / Victoria,,  43.453860, -80.495513,,,0,,1,
20,20,1474,1474,Central Station,,  43.453194, -80.498148,,https://www.grt.ca/en/schedules-maps/platform-layouts-ION-connections.aspx,0,,1,
20,20,3110,3110,Victoria / Joseph,,  43.450566, -80.500281,,,0,,1,
20,20,3111,3111,Victoria / Bramm,,  43.449152, -80.501835,,,0,,1,
20,20,3112,3112,Victoria / Henry,,  43.447809, -80.503316,,,0,,1,
20,20,3566,3566,Victoria / Iron Horse Trail,,  43.445077, -80.506588,,,0,,1,
20,20,3113,3113,Victoria / Patricia,,  43.444338, -80.508732,,,0,,1,
20,20,3114,3114,Victoria / Belmont,,  43.443021, -80.512302,,,0,,1,
20,20,3115,3115,Victoria / Lawrence,,  43.441836, -80.515265,,,0,,1,
20,20,3116,3116,Victoria / Paulander,,  43.440685, -80.517709,,,0,,1,
20,20,3117,3117,Victoria / Westmount,,  43.439743, -80.520731,,,0,,1,
20,20,3118,3118,Chopin / Westmount,,  43.443409, -80.523174,,,0,,2,
20,20,3119,3119,Hazelglen / Chopin,,  43.440228, -80.526499,,,0,,1,
20,20,3126,3126,Hazelglen / Victoria,,  43.438632, -80.524200,,,0,,1,
20,20,3128,3128,Victoria / Fenwick,,  43.437535, -80.526742,,,0,,2,
20,20,3129,3129,Victoria / Fischer-Hallman,,  43.436323, -80.529729,,,0,,1,
20,20,3130,3130,Victoria / Stoke,,  43.435095, -80.533272,,,0,,1,
20,20,3132,3132,Victoria / Eastforest,,  43.433329, -80.539834,,,0,,1,
20,20,3556,3556,Victoria / Westforest,,  43.431820, -80.544274,,,0,,2,
20,20,3552,3552,Victoria / Highgate,,  43.430224, -80.548769,,,0,,2,
20,20,3881,3881,The Boardwalk Station,,  43.435497, -80.560761,,https://www.grt.ca/en/schedules-maps/platform-layouts-ION-connections.aspx,0,place_TBW,1,
20,20,3554,3554,Victoria / Path To Winding Meadow,,  43.429389, -80.550666,,,0,,1,
20,20,3553,3553,Victoria / Bramblewood,,  43.430166, -80.548337,,,0,,2,
20,20,3555,3555,Victoria / Westforest,,  43.431723, -80.543977,,,0,,2,
20,20,3208,3208,Victoria / Eastforest,,  43.433577, -80.538696,,,0,,1,
20,20,3210,3210,Victoria / Oprington,,  43.435149, -80.532424,,,0,,1,
20,20,3142,3142,Victoria / Fischer-Hallman,,  43.436551, -80.528545,,,0,,1,
20,20,3212,3212,Victoria / Monte Carlo,,  43.437648, -80.525826,,,0,,2,
20,20,3214,3214,Hazelglen / Mooregate,,  43.438813, -80.524322,,,0,,1,
20,20,3215,3215,Hazelglen / Chopin,,  43.440352, -80.526435,,,0,,1,
20,20,3216,3216,Chopin / Westmount,,  43.443355, -80.523075,,,0,,1,
20,20,3217,3217,Westmount / Karn,,  43.441893, -80.522469,,,0,,1,
20,20,3218,3218,Victoria / Westmount,,  43.439651, -80.520312,,,0,,1,
20,20,3219,3219,Victoria / Paulander,,  43.440594, -80.517437,,,0,,1,
20,20,3220,3220,Victoria / Lawrence,,  43.441978, -80.514695,,,0,,1,
20,20,3564,3564,Victoria / Belmont,,  43.443021, -80.511944,,,0,,1,
20,20,3221,3221,Victoria / Patricia,,  43.444345, -80.508263,,,0,,1,
20,20,3222,3222,Victoria / Iron Horse Trail,,  43.444887, -80.506553,,,0,,1,
20,20,3565,3565,Victoria / West,,  43.446096, -80.505023,,,0,,1,
20,20,3224,3224,Victoria / Park,,  43.448229, -80.502608,,,0,,1,
20,20,3225,3225,Victoria / Michael,,  43.449304, -80.501450,,,0,,1,
20,20,3227,3227,Victoria / Joseph,,  43.450881, -80.499682,,,0,,1,
20,20,3226,3226,Central Station,,  43.452630, -80.498135,,https://www.grt.ca/en/schedules-maps/platform-layouts-ION-connections.aspx,0,,1,
20,20,1895,1895,Duke / Francis,,  43.453304, -80.495379,,,0,,1,
20,20,1899,1899,Kitchener City Hall Station,,  43.452127, -80.491660,,https://www.grt.ca/en/schedules-maps/platform-layouts-ION-connections.aspx,0,,1,
20,20,1001,1001,Frederick / Region Of Waterloo Headquarters,,  43.452334, -80.484195,,,0,,1,
20,20,1002,1002,Frederick / Otto,,  43.453004, -80.482917,,,0,,1,
20,20,1003,1003,Frederick / Samuel,,  43.454834, -80.479514,,,0,,1,
20,20,1004,1004,Frederick / Merner,,  43.456218, -80.476907,,,0,,1,
20,20,1006,1006,Frederick / Frederick Mall,,  43.457932, -80.473579,,,0,,1,
20,20,1007,1007,Frederick / Ann,,  43.459292, -80.469797,,,0,,1,
20,20,1009,1009,Frederick / Lois,,  43.460925, -80.464641,,,0,,1,
20,20,1010,1010,Frederick / River,,  43.461838, -80.461666,,,0,,1,
20,20,3559,3559,Frederick / Turner,,  43.463503, -80.459590,,,0,,1,
20,20,2333,2333,Victoria / Frederick,,  43.466248, -80.457436,,,0,,1,
20,20,2335,2335,Victoria / Forfar,,  43.467384, -80.453828,,,0,,1,
20,20,2336,2336,Victoria / Natchez,,  43.468422, -80.450678,,,0,,1,
20,20,1680,1680,Natchez / Rothsay,,  43.468152, -80.448752,,,0,,2,
20,20,1681,1681,Natchez / Matthew,,  43.465646, -80.446476,,,0,,2,
20,20,1682,1682,Halifax / Natchez,,  43.463535, -80.445568,,,0,,1,
20,20,1683,1683,Halifax / Confederation,,  43.461789, -80.445670,,,0,,1,
20,20,1684,1684,Confederation / Lorraine,,  43.460242, -80.442421,,,0,,1,
20,20,2394,2394,Lorraine / Birkshire,,  43.457770, -80.448847,,,0,,1,
20,20,4098,4098,Ottawa / River,,  43.450948, -80.443774,,,0,,1,
20,20,2379,2379,Old Chicopee / Ottawa,,  43.451778, -80.440424,,,0,,1,
20,20,2380,2380,Holborn / Old Chicopee,,  43.450546, -80.439682,,,0,,1,
201,201,1127,1127,Conestoga Station,,  43.498045, -80.529003,,https://www.grt.ca/en/schedules-maps/platform-layouts-ION-connections.aspx,0,place_CML,1,
201,201,2505,2505,King / Manulife,,  43.491694, -80.528496,,,0,,1,
201,201,2508,2508,King / Weber,,  43.485541, -80.527092,,,0,,1,
201,201,4072,4072,Columbia / King,,  43.481701, -80.527078,,,0,,1,
201,201,2512,2512,Columbia / Hazel,,  43.480083, -80.531530,,,0,,1,
201,201,3889,3889,Phillip / Columbia,,  43.476506, -80.539754,,,0,,1,
201,201,1260,1260,University Of Waterloo Station,,  43.474043, -80.541208,,https://www.grt.ca/en/schedules-maps/platform-layouts-ION-connections.aspx,0,,1,3
201,201,3445,3445,Fischer-Hallman / Columbia,,  43.467198, -80.565960,,,0,,1,
201,201,3162,3162,Fischer-Hallman / Keats Way,,  43.457641, -80.557644,,,0,,1,
201,201,3590,3590,Fischer-Hallman / Erb,,  43.452708, -80.553815,,,0,,1,
201,201,3165,3165,Fischer-Hallman / Thorndale,,  43.448570, -80.550311,,,0,,1,
201,201,3167,3167,Fischer-Hallman / University Ave.,,  43.443533, -80.544700,,,0,,1,
201,201,3169,3169,Fischer-Hallman / Stoke,,  43.439255, -80.535588,,,0,,1,
201,201,3170,3170,Fischer-Hallman / Victoria,,  43.436058, -80.528866,,,0,,1,
201,201,3892,3892,Fischer-Hallman / Highland,,  43.431317, -80.525443,,,0,,1,
201,201,2981,2981,Fischer-Hallman / Queens,,  43.428220, -80.523417,,,0,,1,
201,201,2983,2983,Fischer-Hallman / Mcgarry,,  43.423565, -80.519302,,,0,,1,
201,201,2985,2985,Fischer-Hallman / Ottawa,,  43.416381, -80.511009,,,0,,1,
201,201,3894,3894,Fischer-Hallman / Activa,,  43.413287, -80.507999,,,0,,1,
201,201,3896,3896,Fischer-Hallman / Cotton Grass,,  43.407497, -80.501546,,,0,,1,
201,201,3004,3004,Block Line / Westmount,,  43.411268, -80.499081,,,0,,1,
201,201,2881,2881,Block Line / Laurentian,,  43.412499, -80.492179,,,0,,1,
201,201,1973,1973,Block Line / Strasburg,,  43.415990, -80.479421,,,0,,1,
201,201,1028,1028,Block Line / Kingswood,,  43.417690, -80.473350,,,0,,1,
201,201,2024,2024,Block Line / Fallowfield,,  43.418737, -80.466872,,,0,,1,
201,201,1458,1458,Block Line Station,,  43.422107, -80.462314,,https://www.grt.ca/en/schedules-maps/platform-layouts-ION-connections.aspx,0,,1,
201,201,1859,1859,Homer Watson / Doon Village,,  43.399226, -80.445362,,,0,,1,
201,201,2052,2052,Homer Watson / Pioneer,,  43.394917, -80.431568,,,0,,1,
201,201,2053,2053,Homer Watson / Pioneer,,  43.395250, -80.431619,,,0,,1,
201,201,2055,2055,Manitou / Bleams,,  43.412149, -80.449223,,,0,,1,
201,201,2054,2054,Courtland / Manitou,,  43.419330, -80.454200,,,0,,1,
201,201,2351,2351,Block Line Station,,  43.422103, -80.462743,,https://www.grt.ca/en/schedules-maps/platform-layouts-ION-connections.aspx,0,,1,
201,201,1033,1033,Block Line / Hanover,,  43.419032, -80.466603,,,0,,1,
201,201,2086,2086,Block Line / Kingswood,,  43.417804, -80.473670,,,0,,1,
201,201,2885,2885,Block Line / Strasburg,,  43.415741, -80.480343,,,0,,1,
201,201,2888,2888,Block Line / Laurentian,,  43.412775, -80.491498,,,0,,1,
201,201,3189,3189,Block Line / Westmount,,  43.411524, -80.498969,,,0,,1,
201,201,3895,3895,Fischer-Hallman / Westmount,,  43.406726, -80.500095,,,0,,1,
201,201,3893,3893,Fischer-Hallman / Activa,,  43.414230, -80.508537,,,0,,1,
201,201,2969,2969,Fischer-Hallman / Ottawa,,  43.416578, -80.510884,,,0,,1,
201,201,2971,2971,Fischer-Hallman / Mcgarry,,  43.423428, -80.518821,,,0,,1,
201,201,2986,2986,Fischer-Hallman / Queens,,  43.428594, -80.523341,,,0,,1,
201,201,3891,3891,Fischer-Hallman / Highland,,  43.431596, -80.525379,,,0,,1,
201,201,3143,3143,Fischer-Hallman / Victoria,,  43.436852, -80.529206,,,0,,1,
201,201,3144,3144,Fischer-Hallman / Stoke,,  43.439471, -80.535438,,,0,,1,
201,201,3146,3146,Fischer-Hallman / University Ave.,,  43.444410, -80.545695,,,0,,1,
201,201,1992,1992,Fischer-Hallman / Thorndale,,  43.448686, -80.550038,,,0,,1,
201,201,1972,1972,Fischer-Hallman / Erb,,  43.452915, -80.553690,,,0,,1,
201,201,3465,3465,Fischer-Hallman / Keats Way,,  43.458379, -80.557827,,,0,,1,
201,201,3890,3890,Fischer-Hallman / Columbia,,  43.467377, -80.565649,,,0,,1,
201,201,3887,3887,Phillip / Columbia,,  43.476417, -80.539403,,,0,,1,
201,201,2524,2524,Columbia / Hazel,,  43.480036, -80.531134,,,0,,1,
201,201,4073,4073,King / Columbia,,  43.482457, -80.526109,,,0,,1,
201,201,1916,1916,King / Weber,,  43.484997, -80.526680,,,0,,1,
201,201,1918,1918,King / Manulife,,  43.491215, -80.528029,,,0,,1,
202,202,4001,4001,The Boardwalk Station,,  43.435401, -80.560347,,https://www.grt.ca/en/schedules-maps/platform-layouts-ION-connections.aspx,0,place_TBW,1,
202,202,1983,1983,Erb / Erbsville Ct.,,  43.448028, -80.566047,,,0,,1,
202,202,1994,1994,Erb / Fischer-Hallman,,  43.452605, -80.552839,,,0,,1,
202,202,1997,1997,Erb / Amos,,  43.455241, -80.545317,,,0,,1,
202,202,2787,2787,University Ave. / Weber,,  43.477651, -80.520531,,,0,,1,
202,202,2788,2788,University Ave. / Conestoga College - Waterloo,,  43.479307, -80.516202,,,0,,1,
202,202,4052,4052,University Ave. / Lincoln,,  43.483171, -80.508216,,,0,,1,
202,202,4055,4055,University Ave. / Bridge,,  43.489504, -80.493414,,,0,,1,
202,202,3665,3665,University Ave. / Pastern,,  43.491957, -80.490957,,,0,,1,
202,202,4047,4047,University Ave. / Auburn,,  43.497936, -80.491846,,,0,,1,
202,202,2035,2035,University Ave. / Lexington,,  43.504597, -80.496591,,,0,,1,
202,202,3750,3750,University Ave. / New Bedford,,  43.510850, -80.497504,,,0,,1,
202,202,3752,3752,University Ave. / R.I.M. Park,,  43.517882, -80.502671,,,0,,1,
202,202,3842,3842,University Ave. / Northfield Technology Park,,  43.518089, -80.513432,,,0,,1,
202,202,3755,3755,Northfield / Northfield Transit Garage,,  43.514823, -80.519513,,,0,,1,
202,202,3756,3756,Northfield / Bridge,,  43.511241, -80.521853,,,0,,1,
202,202,4043,4043,Northfield / Davenport,,  43.503649, -80.528294,,,0,,1,
202,202,3799,3799,Conestoga Station,,  43.498079, -80.528656,,https://www.grt.ca/en/schedules-maps/platform-layouts-ION-connections.aspx,0,place_CML,1,
202,202,4042,4042,Northfield / Davenport,,  43.503140, -80.528998,,,0,,1,
202,202,3761,3761,Northfield / Bridge,,  43.511777, -80.521096,,,0,,1,
202,202,3762,3762,Northfield / Northfield Transit Garage,,  43.515414, -80.518737,,,0,,1,
202,202,3763,3763,University Ave. / Northfield Technology Park,,  43.517879, -80.513277,,,0,,1,
202,202,3765,3765,University Ave. / R.I.M. Park,,  43.517328, -80.502303,,,0,,1,
202,202,3766,3766,University Ave. / New Bedford,,  43.510697, -80.497755,,,0,,1,
202,202,1931,1931,University Ave. / Lexington,,  43.504300, -80.496643,,,0,,1,
202,202,4046,4046,University Ave. / Auburn,,  43.497427, -80.491812,,,0,,1,
202,202,3671,3671,University Ave. / Pastern,,  43.491859, -80.491292,,,0,,1,
202,202,4054,4054,University Ave. / Bridge,,  43.489234, -80.494568,,,0,,1,
202,202,4049,4049,University Ave. / Dale,,  43.483669, -80.507705,,,0,,1,
202,202,2832,2832,University Ave. / Conestoga College - Waterloo,,  43.478998, -80.517395,,,0,,1,
202,202,2670,2670,University Ave. / Weber,,  43.477831, -80.520727,,,0,,1,
202,202,1166,1166,University Ave. / King,,  43.476034, -80.525786,,,0,place_KUN,1,
202,202,1966,1966,Erb / Westmount,,  43.459056, -80.537761,,,0,,1,
202,202,1969,1969,Erb / Amos,,  43.455373, -80.546100,,,0,,1,
202,202,4056,4056,Erb / Fischer-Hallman,,  43.452353, -80.554147,,,0,,1,
202,202,3687,3687,Erb / Erbsville Ct.,,  43.448341, -80.565669,,,0,,1,
203,203,1064,1064,Cambridge Centre Station,,  43.392866, -80.322710,,https://www.grt.ca/en/schedules-maps/platform-layouts-ION-connections.aspx,0,place_CBC,1,
203,203,3845,3845,Conestoga / Conestoga Transit Garage,,  43.394530, -80.316692,,,0,,1,
203,203,1170,1170,Conestoga / Lena,,  43.392448, -80.315309,,,0,,1,
203,203,1280,1280,Can-Amera / Conestoga,,  43.390715, -80.312090,,,0,,1,
203,203,3660,3660,Franklin / Can-Amera,,  43.394538, -80.303010,,,0,,1,
203,203,1544,1544,Franklin / Bishop,,  43.398932, -80.304467,,,0,,1,
203,203,1546,1546,Franklin / Turnbull,,  43.403641, -80.306006,,,0,,1,
203,203,1547,1547,Franklin / Sheldon,,  43.405680, -80.306637,,,0,,1,
203,203,1549,1549,Franklin / Pinebush,,  43.410416, -80.308090,,,0,,1,
203,203,1550,1550,Franklin / Jamieson,,  43.417309, -80.310260,,,0,,1,
203,203,2107,2107,Franklin / Winston,,  43.420982, -80.310282,,,0,,1,
203,203,1258,1258,Franklin / Thomas,,  43.424349, -80.310056,,,0,,1,
203,203,1259,1259,Franklin / Edward,,  43.427031, -80.309853,,,0,,1,
203,203,1281,1281,Franklin / Adam,,  43.429896, -80.308815,,,0,,1,
203,203,1299,1299,Tannery / Queen,,  43.431593, -80.309257,,,0,,1,
203,203,1300,1300,Guelph / Sheffield,,  43.434452, -80.311535,,,0,,1,
203,203,1291,1291,Fisher Mills / Scott,,  43.435358, -80.320884,,,0,,1,
203,203,4100,4100,Maple Grove / Beaverdale,,  43.434518, -80.336239,,,0,,1,
203,203,4102,4102,Maple Grove / Compass,,  43.431146, -80.345259,,,0,,1,
203,203,1020,1020,Maple Grove / Boxwood,,  43.427072, -80.364379,,,0,,1,
203,203,3649,3649,Maple Grove / Vondrau,,  43.425372, -80.374368,,,0,,1,
203,203,1035,1035,Maple Grove / Fountain (East Side),,  43.424595, -80.378277,,,0,,2,
203,203,2317,2317,Maple Grove / Fountain (West Side),,  43.423997, -80.381078,,,0,,1,
203,203,3531,3531,Maple Grove / Saltsman,,  43.421943, -80.383797,,,0,,2,
203,203,2318,2318,Maple Grove / Cherry Blossom,,  43.416564, -80.387608,,,0,,1,
203,203,1572,1572,Sportsworld Station,,  43.410194, -80.392582,,https://www.grt.ca/en/schedules-maps/platform-layouts-ION-connections.aspx,0,place_SPW,1,
203,203,1288,1288,Maple Grove / Cherry Blossom,,  43.417155, -80.386801,,,0,,1,
203,203,1287,1287,Maple Grove / Saltsman,,  43.421735, -80.383562,,,0,,1,
203,203,1036,1036,Maple Grove / Fountain (East Side),,  43.424397, -80.378127,,,0,,1,
203,203,3849,3849,Maple Grove / Vondrau,,  43.425387, -80.373001,,,0,,1,
203,203,1021,1021,Maple Grove / Boxwood,,  43.426863, -80.363846,,,0,,1,
203,203,4103,4103,Maple Grove / Compass,,  43.430969, -80.345042,,,0,,1,
203,203,4101,4101,Maple Grove / Beaverdale,,  43.434108, -80.336789,,,0,,1,
203,203,1296,1296,Fisher Mills / Scott,,  43.435366, -80.319995,,,0,,1,
203,203,1308,1308,Guelph / Sheffield,,  43.434921, -80.311728,,,0,,1,
203,203,1309,1309,Adam / Tannery,,  43.430488, -80.309764,,,0,,1,
203,203,1310,1310,Franklin / Shamrock,,  43.429110, -80.309656,,,0,,1,
203,203,3857,3857,Franklin / Edward,,  43.426852, -80.309966,,,0,,1,
203,203,1312,1312,Franklin / Thomas,,  43.424341, -80.310217,,,0,,1,
203,203,2106,2106,Franklin / Winston,,  43.420727, -80.310589,,,0,,1,
203,203,1484,1484,Franklin / Holiday Inn Dr.,,  43.418394, -80.310765,,,0,,1,
203,203,1485,1485,Franklin / Pinebush,,  43.411121, -80.308490,,,0,,1,
203,203,1487,1487,Franklin / Sheldon,,  43.405535, -80.307061,,,0,,1,
203,203,1488,1488,Franklin / Turnbull,,  43.403480, -80.306107,,,0,,1,
203,203,1490,1490,Franklin / Bishop,,  43.399166, -80.304774,,,0,,1,
203,203,1357,1357,Can-Amera / Franklin,,  43.393913, -80.303857,,,0,,1,
203,203,1279,1279,Can-Amera / Conestoga,,  43.390842, -80.312322,,,0,,1,
203,203,1358,1358,Dunbar / Conestoga,,  43.391388, -80.314836,,,0,,1,
203,203,1569,1569,Sportsworld Station,,  43.409422, -80.393076,,https://www.grt.ca/en/schedules-maps/platform-layouts-ION-connections.aspx,0,place_SPW,1,
203,203,1728,1728,Conestoga College Blvd. / Homer Watson,,  43.388374, -80.411450,,,0,,2,
203,203,3888,3888,Conestoga College Cambridge Campus,,  43.385293, -80.398107,,,0,,1,
203,203,1636,1636,Gateway Park / King,,  43.405837, -80.386097,,,0,,1,
203,203,1638,1638,Gateway Park / Sportsworld,,  43.408104, -80.392472,,,0,,1,
204,204,4000,4000,The Boardwalk Station,,  43.435741, -80.560696,,https://www.grt.ca/en/schedules-maps/platform-layouts-ION-connections.aspx,0,place_TBW,1,
204,204,2669,2669,Highland / Path To Burnaby,,  43.423755, -80.549298,,,0,,2,
204,204,1211,1211,Highland / Westforest,,  43.425162, -80.543774,,,0,,1,
204,204,1406,1406,Highland / Eastforest,,  43.429393, -80.531699,,,0,,1,
204,204,3173,3173,Highland / Fischer-Hallman,,  43.431430, -80.525900,,,0,,1,
204,204,3175,3175,Highland / Fieldgate,,  43.433939, -80.519393,,,0,,1,
204,204,3389,3389,Highland / Westmount,,  43.435674, -80.514516,,,0,,1,
204,204,3390,3390,Highland / Lawrence,,  43.437953, -80.510440,,,0,,1,
204,204,3391,3391,Highland / Belmont,,  43.439517, -80.507770,,,0,,1,
204,204,1893,1893,Central Station,,  43.452864, -80.497935,,https://www.grt.ca/en/schedules-maps/platform-layouts-ION-connections.aspx,0,,1,
204,204,1930,1930,Victoria / Kitchener Rail Station,,  43.454631, -80.494110,,,0,,1,
204,204,1903,1903,Victoria / Margaret,,  43.456237, -80.489189,,,0,,1,
204,204,1923,1923,Victoria / Lancaster,,  43.458598, -80.482154,,,0,,1,
204,204,1987,1987,Victoria / Edna,,  43.460823, -80.474932,,,0,,1,
204,204,1936,1936,Victoria / River,,  43.464286, -80.464006,,,0,,1,
204,204,2337,2337,Victoria / Path To Rothsay,,  43.469541, -80.447392,,,0,,1,
204,204,5078,5078,Victoria / Lackner (Temporary Stop),,  43.471512, -80.441578,,,0,,1,
204,204,1932,1932,Lackner / Keewatin,,  43.464907, -80.436919,,,0,,1,
204,204,1679,1679,Lackner / Lorraine,,  43.461400, -80.436960,,,0,,1,
204,204,1057,1057,Ottawa / Lackner,,  43.456418, -80.432061,,,0,,1,
204,204,1277,1277,Ottawa / Lackner,,  43.456719, -80.431622,,,0,,1,
204,204,1677,1677,Lackner / Lorraine,,  43.462356, -80.436929,,,0,,1,
204,204,1933,1933,Lackner / Keewatin,,  43.464880, -80.436656,,,0,,1,
204,204,1678,1678,Victoria / Bingemans Centre Dr.,,  43.471599, -80.442218,,,0,,1,
204,204,1935,1935,Victoria / Frederick,,  43.466304, -80.457956,,,0,,1,
204,204,1937,1937,Victoria / River,,  43.464414, -80.464392,,,0,,1,
204,204,2352,2352,Victoria / Edna,,  43.460593, -80.476597,,,0,,1,
204,204,1924,1924,Victoria / Lancaster,,  43.458814, -80.482180,,,0,,1,
204,204,1912,1912,Victoria / Margaret,,  43.456558, -80.488848,,,0,,1,
204,204,1921,1921,Victoria / Kitchener Rail Station,,  43.454965, -80.493645,,,0,,1,
204,204,3356,3356,Highland / Belmont,,  43.439447, -80.508166,,,0,,1,
204,204,3357,3357,Highland / Lawrence,,  43.438097, -80.510599,,,0,,1,
204,204,3198,3198,Highland / Westmount,,  43.435579, -80.515513,,,0,,1,
204,204,3199,3199,Highland / Fieldgate,,  43.434021, -80.519627,,,0,,1,
204,204,1716,1716,Highland / Fischer-Hallman,,  43.431630, -80.526108,,,0,,1,
204,204,1654,1654,Highland / Eastforest,,  43.429501, -80.531886,,,0,,1,
204,204,1314,1314,Highland / Westforest,,  43.425313, -80.543983,,,0,,1,
204,204,2672,2672,Highland / Path To Burnaby,,  43.424064, -80.548858,,,0,,2,
205,205,1690,1690,Ottawa / Mcgee,,  43.453995, -80.435507,,,0,,1,
205,205,4097,4097,Ottawa / River,,  43.451072, -80.444143,,,0,,1,
205,205,1940,1940,Ottawa / Franklin,,  43.448615, -80.451337,,,0,,1,
205,205,2633,2633,Ottawa / Nottingham,,  43.447696, -80.458726,,,0,,1,
205,205,2635,2635,Ottawa / Weber,,  43.444309, -80.467086,,,0,,1,
205,205,1390,1390,Borden Station,,  43.442352, -80.474314,,https://www.grt.ca/en/schedules-maps/platform-layouts-ION-connections.aspx,0,,1,
205,205,1481,1481,Ottawa / Courtland,,  43.437349, -80.476675,,,0,,1,
205,205,1434,1434,Mill Station,,  43.434562, -80.478758,,https://www.grt.ca/en/schedules-maps/platform-layouts-ION-connections.aspx,0,,1,
205,205,4091,4091,Ottawa / Elmsdale,,  43.421845, -80.493898,,,0,,1,
205,205,2869,2869,Ottawa / Westmount,,  43.420360, -80.502589,,,0,,1,
205,205,5032,5032,Ottawa / Fischer-Hallman (Temporary Stop),,  43.415080, -80.513514,,,0,,2,
205,205,1675,1675,Sunrise Centre Station,,  43.415257, -80.517086,,https://www.grt.ca/en/schedules-maps/platform-layouts-ION-connections.aspx,0,place_SRC,1,
205,205,4096,4096,Ottawa / Fischer-Hallman,,  43.416372, -80.511543,,,0,,1,
205,205,4092,4092,Ottawa / Elmsdale,,  43.421673, -80.493619,,,0,,1,
205,205,1440,1440,Mill Station,,  43.433971, -80.478634,,https://www.grt.ca/en/schedules-maps/platform-layouts-ION-connections.aspx,0,,1,
205,205,2748,2748,Courtland / Borden,,  43.437878, -80.478497,,,0,,1,
205,205,1391,1391,Borden Station,,  43.442306, -80.474113,,https://www.grt.ca/en/schedules-maps/platform-layouts-ION-connections.aspx,0,,1,
205,205,1939,1939,Ottawa / Weber,,  43.444247, -80.466676,,,0,,1,
205,205,2851,2851,Ottawa / Nottingham,,  43.447703, -80.458232,,,0,,1,
205,205,1953,1953,Ottawa / Franklin,,  43.448724, -80.450306,,,0,,1,
205,205,1671,1671,Ottawa / Mcgee,,  43.453808, -80.435315,,,0,,1,
206,206,3499,3499,Fairway Station,,  43.422114, -80.441686,,https://www.grt.ca/en/schedules-maps/platform-layouts-ION-connections.aspx,0,place_FVM,1,5
206,206,4107,4107,King / Fairway,,  43.428152, -80.431433,,,0,,2,
206,206,1563,1563,3227 King St. E.,,  43.426165, -80.425117,,,0,,1,
206,206,1565,1565,King / River,,  43.425121, -80.419777,,,0,,1,
206,206,4110,4110,King / Grand River Hospital - Freeport Campus,,  43.423368, -80.411409,,,0,,2,
206,206,1567,1567,King / Deer Ridge,,  43.410628, -80.399820,,,0,,1,
206,206,4104,4104,Shantz Hill / Preston Pkwy.,,  43.399250, -80.375075,,,0,,1,
206,206,1585,1585,King / Eagle,,  43.398531, -80.363684,,,0,,1,
206,206,1587,1587,King / Westminster,,  43.395626, -80.358071,,,0,,1,
206,206,1589,1589,King / Dolph,,  43.392967, -80.352962,,,0,,1,
206,206,1591,1591,King / Bishop,,  43.389798, -80.346625,,,0,,1,
206,206,1597,1597,Coronation / Cambridge Memorial Hospital,,  43.379358, -80.329058,,,0,,1,
206,206,1600,1600,Delta Station,,  43.372899, -80.318041,,https://www.grt.ca/en/schedules-maps/platform-layouts-ION-connections.aspx,0,,1,
206,206,1603,1603,Beverly / Dundas,,  43.365433, -80.306584,,,0,,1,
206,206,3536,3536,Wellington / Dickson,,  43.359976, -80.311465,,,0,,1,
206,206,1521,1521,Ainslie Terminal,,  43.357024, -80.313201,,https://www.grt.ca/en/schedules-maps/platform-layouts-ION-connections.aspx,0,place_AST,1,
206,206,3863,3863,Cedar / Grand,,  43.353433, -80.318079,,,0,,2,
206,206,3864,3864,Cedar / St Andrews,,  43.352582, -80.323320,,,0,,1,
206,206,2249,2249,Cedar / Westgate Centre,,  43.351564, -80.329365,,,0,,1,
206,206,2290,2290,Cedar / Southgate,,  43.350834, -80.333654,,,0,,1,
206,206,2250,2250,Southwood / Cedar,,  43.349767, -80.336221,,,0,,1,
206,206,4105,4105,Southwood / St Andrews,,  43.344468, -80.331309,,,0,,1,
206,206,4106,4106,St Andrews / Stanley,,  43.346412, -80.328772,,,0,,1,
206,206,2134,2134,Woodside / Victoria,,  43.350057, -80.330001,,,0,,2,
206,206,2136,2136,Woodside / Cedar,,  43.350635, -80.333682,,,0,,2,
206,206,2267,2267,Cedar / Westgate Centre,,  43.351568, -80.328414,,,0,,1,
206,206,3861,3861,Cedar / St Andrews,,  43.352334, -80.323965,,,0,,1,
206,206,3862,3862,Cedar / Grand,,  43.353250, -80.317624,,,0,,1,
206,206,1512,1512,Ainslie Terminal,,  43.357341, -80.313506,,https://www.grt.ca/en/schedules-maps/platform-layouts-ION-connections.aspx,0,place_AST,1,
206,206,1605,1605,Wellington / Main,,  43.359293, -80.311292,,,0,,1,
206,206,1608,1608,Beverly / Dundas,,  43.365467, -80.306206,,,0,,1,
206,206,1612,1612,Delta Station,,  43.373760, -80.318972,,https://www.grt.ca/en/schedules-maps/platform-layouts-ION-connections.aspx,0,,1,
206,206,1615,1615,Coronation / Cambridge Memorial Hospital,,  43.379691, -80.328907,,,0,,1,
206,206,1622,1622,King / Bishop,,  43.389978, -80.346611,,,0,,1,
206,206,1624,1624,King / Dolph,,  43.393183, -80.352923,,,0,,1,
206,206,1455,1455,King / Westminster,,  43.396079, -80.358572,,,0,,1,
206,206,1627,1627,King / Eagle,,  43.398868, -80.363887,,,0,,1,
206,206,1635,1635,Shantz Hill / Preston Pkwy.,,  43.399964, -80.375696,,,0,,1,
206,206,1590,1590,Sportsworld Station,,  43.409707, -80.392850,,https://www.grt.ca/en/schedules-maps/platform-layouts-ION-connections.aspx,0,place_SPW,1,
206,206,1640,1640,King / Deer Ridge,,  43.410735, -80.399597,,,0,,1,
206,206,1642,1642,King / Grand River Hospital - Freeport Campus,,  43.424101, -80.412276,,,0,,2,
206,206,1643,1643,King / River,,  43.425284, -80.419998,,,0,,1,
206,206,4109,4109,3227 King St. E.,,  43.426398, -80.425448,,,0,,1,
206,206,1646,1646,King / Fairway,,  43.428275, -80.431101,,,0,,1,
21,21,3798,3798,Conestoga Station,,  43.498190, -80.529286,,https://www.grt.ca/en/schedules-maps/platform-layouts-ION-connections.aspx,0,place_CML,1,
21,21,4004,4004,Conestoga Station,,  43.498135, -80.529576,,https://www.grt.ca/en/schedules-maps/platform-layouts-ION-connections.aspx,0,place_CML,1,
21,21,2089,2089,King / Northfield,,  43.502150, -80.533607,,,0,,1,
21,21,3848,3848,600 King St. N.,,  43.503439, -80.535126,,,0,,2,
21,21,2090,2090,King / Northland,,  43.504830, -80.536781,,,0,,1,
21,21,3727,3727,King / Martin Grove,,  43.510275, -80.542986,,,0,,2,
21,21,3807,3807,Farmers Market Rd. / King,,  43.510670, -80.549380,,,0,,1,
21,21,2091,2091,Farmers Market Rd. / St Jacobs Market,,  43.510065, -80.555892,,,0,,1,
21,21,4040,4040,King / Weber (St Jacobs),,  43.514204, -80.557020,,,0,,2,
21,21,3836,3836,King / Lobsinger,,  43.515887, -80.557272,,,0,,2,
21,21,3808,3808,King / Printery,,  43.528053, -80.555339,,,0,,1,
21,21,2092,2092,King / Henry,,  43.532993, -80.554572,,,0,,2,
21,21,4090,4090,King / High Crest,,  43.535233, -80.554211,,,0,,1,
21,21,2093,2093,King / Cedar,,  43.537862, -80.553781,,,0,,1,
21,21,2094,2094,King / Front,,  43.540832, -80.553222,,,0,,2,
21,21,3809,3809,Sawmill / Parkside,,  43.544802, -80.550858,,,0,,1,
21,21,3729,3729,Sawmill / Arthur,,  43.543376, -80.547948,,,0,,1,
21,21,3837,3837,Arthur / Gerrat,,  43.554805, -80.555365,,,0,,1,
21,21,3884,3884,728 Arthur St. S.,,  43.561607, -80.558683,,,0,,1,
21,21,3838,3838,Arthur / Scotch Line,,  43.567136, -80.561293,,,0,,1,
21,21,3810,3810,Arthur / Union,,  43.576850, -80.563043,,,0,,1,
21,21,3811,3811,Arthur / Earl Martin,,  43.580935, -80.562456,,,0,,2,
21,21,3812,3812,Arthur / South Field,,  43.584058, -80.562099,,,0,,2,
21,21,3813,3813,Arthur / Oriole,,  43.589053, -80.561443,,,0,,2,
21,21,3873,3873,Arthur / First,,  43.592572, -80.560934,,,0,,2,
21,21,3814,3814,Arthur / Brubacher,,  43.594534, -80.560722,,,0,,2,
21,21,3815,3815,Arthur / Park,,  43.596701, -80.560099,,,0,,2,
21,21,3816,3816,Arthur / Wyatt,,  43.597968, -80.559173,,,0,,1,
21,21,3817,3817,Arthur / Church,,  43.599341, -80.558147,,,0,,1,
21,21,3818,3818,Church / Walker,,  43.600223, -80.559992,,,0,,1,
21,21,3819,3819,Snyder / Church,,  43.600072, -80.563308,,,0,,1,
21,21,3820,3820,Snyder / South,,  43.596913, -80.563728,,,0,,1,
21,21,3821,3821,Snyder / Woolwich Memorial Centre,,  43.595697, -80.563892,,,0,,1,
21,21,3822,3822,Snyder / Second,,  43.593413, -80.564199,,,0,,1,
21,21,3823,3823,First / Snyder,,  43.592347, -80.563389,,,0,,2,
21,21,3824,3824,Arthur / Howard,,  43.589441, -80.561564,,,0,,2,
21,21,3825,3825,Arthur / Whipporwill,,  43.584482, -80.562269,,,0,,1,
21,21,3826,3826,Arthur / South Parkwood,,  43.580792, -80.562791,,,0,,2,
21,21,3827,3827,Arthur / Listowel,,  43.577292, -80.563225,,,0,,1,
21,21,3839,3839,Arthur / Scotch Line,,  43.567092, -80.561479,,,0,,1,
21,21,3885,3885,728 Arthur St. S.,,  43.561139, -80.558686,,,0,,1,
21,21,3840,3840,Arthur / Gerrat,,  43.554075, -80.555247,,,0,,1,
21,21,3828,3828,Sawmill / Parkside,,  43.544074, -80.549094,,,0,,2,
21,21,3829,3829,King / Front,,  43.540607, -80.553479,,,0,,1,
21,21,3830,3830,King / Cedar,,  43.537718, -80.553894,,,0,,1,
21,21,4089,4089,King / High Crest,,  43.535191, -80.554347,,,0,,1,
21,21,3831,3831,King / Henry,,  43.531887, -80.554878,,,0,,1,
21,21,3832,3832,King / Printery,,  43.527873, -80.555569,,,0,,1,
21,21,3841,3841,King / Lobsinger,,  43.515447, -80.557597,,,0,,2,
21,21,4039,4039,King / Weber (St Jacobs),,  43.514001, -80.557165,,,0,,2,
21,21,3834,3834,Farmers Market Rd. / King,,  43.510256, -80.549494,,,0,,1,
21,21,3728,3728,King / Bridge,,  43.510068, -80.543038,,,0,,2,
21,21,2095,2095,King / Wyman,,  43.505039, -80.537348,,,0,,2,
22,22,1463,1463,Block Line Station,,  43.423333, -80.463469,,https://www.grt.ca/en/schedules-maps/platform-layouts-ION-connections.aspx,0,,1,
22,22,3474,3474,Block Line / St Marys High School,,  43.420070, -80.465070,,,0,place_SMH,1,
22,22,3028,3028,Country Hill / Block Line,,  43.416709, -80.475468,,,0,,1,
22,22,3029,3029,Country Hill / Cherry Hill,,  43.415797, -80.474797,,,0,,1,
22,22,1663,1663,Old Country / Country Hill,,  43.413797, -80.473185,,,0,,1,
22,22,3035,3035,Old Country / Century Hill,,  43.411600, -80.474672,,,0,,1,
22,22,3036,3036,Old Country / Strasburg,,  43.411363, -80.476070,,,0,,2,
22,22,2942,2942,Rittenhouse / Brookfield,,  43.412773, -80.482975,,,0,,2,
22,22,2943,2943,Rittenhouse / Tuerr,,  43.410853, -80.482719,,,0,,1,
22,22,2944,2944,Rittenhouse / Mccabe,,  43.409583, -80.484620,,,0,,1,
22,22,2305,2305,Rittenhouse / Erinbrook,,  43.409529, -80.487098,,,0,,1,
22,22,5030,5030,Erinbrook / Highcroft (Temporary Stop),,  43.410774, -80.493078,,,0,,2,
22,22,2952,2952,Tillsley / Westmount,,  43.409007, -80.498693,,,0,,1,
22,22,2953,2953,Max Becker / Fischer-Hallman,,  43.405922, -80.500293,,,0,,1,
22,22,2954,2954,Max Becker / Commonwealth,,  43.404263, -80.503165,,,0,,2,
22,22,2955,2955,Max Becker / Copper Leaf,,  43.403606, -80.507444,,,0,,1,
22,22,2956,2956,Activa / Donnenwerth,,  43.403085, -80.509807,,,0,,2,
22,22,2957,2957,Activa / Periwinkle,,  43.402203, -80.512111,,,0,,2,
22,22,2958,2958,Activa / Henhoeffer,,  43.402829, -80.515267,,,0,,2,
22,22,2959,2959,Activa / Snowdrop,,  43.402885, -80.517947,,,0,,2,
22,22,2960,2960,David Bergey / Activa,,  43.405715, -80.518406,,,0,,1,
22,22,2961,2961,David Bergey / Peach Blossom,,  43.406932, -80.518829,,,0,,2,
22,22,2962,2962,David Bergey / Ottawa,,  43.410385, -80.522000,,,0,,2,
22,22,2963,2963,Ottawa / Path To Watercress,,  43.411664, -80.519841,,,0,,1,
22,22,1672,1672,Sunrise Centre Station,,  43.415384, -80.517047,,https://www.grt.ca/en/schedules-maps/platform-layouts-ION-connections.aspx,0,place_SRC,1,
22,22,1676,1676,International / Wake Robin,,  43.413526, -80.517447,,https://www.grt.ca/en/schedules-maps/platform-layouts-ION-connections.aspx,0,place_SRC,1,
22,22,2991,2991,Ottawa / Path To Wake Robin,,  43.411968, -80.519443,,,0,,1,
22,22,2992,2992,David Bergey / Ottawa,,  43.410458, -80.522247,,,0,,2,
22,22,2993,2993,David Bergey / Peach Blossom,,  43.406788, -80.518879,,,0,,2,
22,22,2994,2994,David Bergey / Activa,,  43.405400, -80.518458,,,0,,1,
22,22,2995,2995,Activa / Isaiah,,  43.403381, -80.520141,,,0,,2,
22,22,2996,2996,Activa / Snowdrop,,  43.402751, -80.518071,,,0,,1,
22,22,2997,2997,Activa / Reistview,,  43.402483, -80.514455,,,0,,1,
22,22,2998,2998,Activa / Periwinkle,,  43.402060, -80.512248,,,0,,2,
22,22,2999,2999,Activa / Sweet William,,  43.402574, -80.510268,,,0,,1,
22,22,3000,3000,Max Becker / Copper Leaf,,  43.403384, -80.508112,,,0,,1,
22,22,3001,3001,Max Becker / Commonwealth,,  43.404147, -80.503500,,,0,,1,
22,22,3002,3002,Max Becker / Fischer-Hallman,,  43.405729, -80.500092,,,0,,1,
22,22,3005,3005,Tillsley / Westmount,,  43.408995, -80.498050,,,0,,1,
22,22,5031,5031,Erinbrook / Highcroft (Temporary Stop),,  43.410651, -80.493128,,,0,,2,
22,22,2330,2330,Rittenhouse / Erinbrook,,  43.409386, -80.487080,,,0,,2,
22,22,2331,2331,Rittenhouse / Goundry,,  43.409703, -80.483333,,,0,,1,
22,22,2332,2332,Rittenhouse / Brookfield,,  43.411794, -80.482366,,,0,,2,
22,22,3016,3016,Rittenhouse / Block Line,,  43.413755, -80.483201,,,0,,2,
22,22,3037,3037,Old Country / Strasburg,,  43.411282, -80.475898,,,0,,1,
22,22,3038,3038,Old Country / Century Hill,,  43.411713, -80.473794,,,0,,1,
22,22,1662,1662,Old Country / Country Hill,,  43.413874, -80.472968,,,0,,1,
22,22,3043,3043,Country Hill / Cedarhill,,  43.415480, -80.474441,,,0,,1,
22,22,3044,3044,Country Hill / Block Line,,  43.417025, -80.475490,,,0,,1,
22,22,2025,2025,Block Line / St Marys High School,,  43.420003, -80.464736,,,0,,1,
22,22,1669,1669,Lennox Lewis / Activa Sportsplex,,  43.422922, -80.468679,,,0,,2,
22,22,1670,1670,Lennox Lewis / The Family Centre,,  43.424748, -80.470881,,,0,,2,
23,23,3491,3491,Fairway Station,,  43.422565, -80.440990,,https://www.grt.ca/en/schedules-maps/platform-layouts-ION-connections.aspx,0,place_FVM,1,3
23,23,1052,1052,Fairway / River,,  43.434726, -80.427959,,,0,,1,
23,23,3568,3568,Fairway / Sims Estate,,  43.439820, -80.420638,,,0,,1,
23,23,1053,1053,Fairway / Fairway Cres.,,  43.441454, -80.417829,,,0,,1,
23,23,3725,3725,900 Fairway Rd. N.,,  43.442517, -80.415820,,,0,,1,
23,23,2029,2029,Fairway / Chicopee Hills,,  43.444742, -80.411904,,,0,,1,
23,23,2031,2031,Fairway / Upper Mercer,,  43.446685, -80.408599,,,0,,2,
23,23,2032,2032,Zeller / Fairway,,  43.448458, -80.404617,,,0,,1,
23,23,2033,2033,Zeller / Watervale,,  43.451174, -80.406606,,,0,,2,
23,23,2034,2034,Old Zeller / Eden Oak,,  43.453652, -80.408096,,,0,,2,
23,23,2036,2036,Old Zeller / Zeller,,  43.454056, -80.412098,,,0,,1,
23,23,2037,2037,Zeller / Brookmead,,  43.453806, -80.415031,,,0,,2,
23,23,2042,2042,Zeller / Janet,,  43.452743, -80.420975,,,0,,2,
23,23,2043,2043,Zeller / Lackner,,  43.450022, -80.423604,,,0,,2,
23,23,3507,3507,Oldfield / Brierdale,,  43.449114, -80.426571,,,0,,2,
23,23,2056,2056,Oldfield / Edenbridge,,  43.449330, -80.428686,,,0,,2,
23,23,1026,1026,Oldfield / Batterswood,,  43.450833, -80.429728,,,0,,2,
23,23,1027,1027,Oldfield / Casey,,  43.453008, -80.430721,,,0,,2,
23,23,3395,3395,Oldfield / Ottawa,,  43.455523, -80.431984,,,0,,1,
23,23,1689,1689,Ottawa / Heritage,,  43.454899, -80.433671,,,0,,2,
23,23,2381,2381,Holborn / Stanley Park Mall,,  43.449193, -80.443055,,,0,place_SPM,1,
23,23,2384,2384,Ottawa / Old Chicopee,,  43.452172, -80.440175,,,0,,1,
23,23,1030,1030,Ottawa / Heritage,,  43.454931, -80.433091,,,0,,1,
23,23,1334,1334,Oldfield / Ottawa,,  43.455335, -80.431947,,,0,,1,
23,23,1059,1059,Oldfield / Jadestone,,  43.452396, -80.430788,,,0,,1,
23,23,1060,1060,Oldfield / Drumoak,,  43.450780, -80.429877,,,0,,2,
23,23,2017,2017,Oldfield / Edenbridge,,  43.449256, -80.428807,,,0,,2,
23,23,1061,1061,Oldfield / Springmount,,  43.448883, -80.426891,,,0,,2,
23,23,1062,1062,Oldfield / Lackner,,  43.449805, -80.424077,,,0,,2,
23,23,2018,2018,Zeller / Susan,,  43.452665, -80.420615,,,0,,2,
23,23,2019,2019,Zeller / Wild Meadow,,  43.453243, -80.417442,,,0,,2,
23,23,1990,1990,Old Zeller / Zeller,,  43.454129, -80.411796,,,0,,1,
23,23,1991,1991,Old Zeller / Path To Pebblecreek Ct.,,  43.452815, -80.407753,,,0,,1,
23,23,1993,1993,Zeller / Pebblecreek,,  43.451066, -80.406684,,,0,,1,
23,23,2008,2008,Zeller / Fairway,,  43.448372, -80.404795,,,0,,2,
23,23,2028,2028,Fairway / Pebblecreek,,  43.446709, -80.409046,,,0,,2,
23,23,2030,2030,Fairway / Chicopee Hills,,  43.444542, -80.412614,,,0,,1,
23,23,3726,3726,Fairway / Lackner,,  43.442900, -80.415633,,,0,,2,
23,23,1038,1038,Fairway / Idle Creek,,  43.441437, -80.418089,,,0,,1,
23,23,3570,3570,Fairway / Briarmeadow,,  43.439840, -80.420934,,,0,,1,
23,23,1039,1039,Fairway / Old Chicopee,,  43.436778, -80.426301,,,0,,1,
23,23,3731,3731,Fairway / River,,  43.434788, -80.428149,,,0,,1,
26,26,2398,2398,Homer Watson / Bleams,,  43.410275, -80.461585,,,0,,2,
26,26,2399,2399,Beasley / Homer Watson,,  43.402026, -80.457604,,,0,,2,
26,26,1792,1792,Trillium / Steckle,,  43.402220, -80.459798,,,0,,2,
26,26,1793,1793,Trillium / Adam Ferrie,,  43.402557, -80.462401,,,0,,2,
26,26,1794,1794,Trillium / Shoemaker,,  43.401728, -80.466249,,,0,,2,
26,26,1691,1691,Trillium / Strasburg,,  43.401286, -80.467862,,,0,,2,
26,26,1777,1777,Mcintyre / Strasburg,,  43.404476, -80.474400,,,0,,1,
26,26,1778,1778,Mcintyre / Mcbrine,,  43.403004, -80.477352,,,0,,2,
26,26,1779,1779,222 Mcintyre Dr.,,  43.402883, -80.480330,,,0,,2,
26,26,1780,1780,Mcintyre / Trillium,,  43.403462, -80.485042,,,0,,2,
26,26,1781,1781,Trillium / Washburn,,  43.401060, -80.485483,,,0,,2,
26,26,3724,3724,820 Trillium Dr.,,  43.399559, -80.484162,,,0,,2,
26,26,1782,1782,Trillium / Huron Natural Area,,  43.398947, -80.482117,,,0,,1,
26,26,1783,1783,680 Trillium Dr.,,  43.398943, -80.477375,,,0,,2,
26,26,1784,1784,Trillium / Mcbrine,,  43.399800, -80.473811,,,0,,2,
26,26,1785,1785,Trillium / Strasburg,,  43.400982, -80.468503,,,0,,2,
26,26,1786,1786,Trillium / Shoemaker,,  43.401611, -80.466176,,,0,,1,
26,26,1787,1787,Trillium / Adam Ferrie,,  43.402255, -80.463330,,,0,,1,
26,26,1788,1788,Trillium / Steckle,,  43.402702, -80.460646,,,0,,1,
26,26,2385,2385,Trillium / Beasley,,  43.401821, -80.459876,,,0,,2,
26,26,2386,2386,Beasley / Homer Watson,,  43.401798, -80.457722,,,0,,1,
26,26,2387,2387,Homer Watson / Bleams,,  43.410458, -80.461422,,,0,,2,
27,27,2473,2473,141 Morgan Ave.,,  43.429286, -80.430255,,,0,,2,
27,27,2474,2474,Morgan / Pepperwood,,  43.428041, -80.427289,,,0,,2,
27,27,2475,2475,Morgan / Greendale,,  43.427320, -80.425228,,,0,,2,
27,27,2476,2476,Morgan / River,,  43.427767, -80.420282,,,0,,2,
27,27,2477,2477,River / King,,  43.425761, -80.419437,,,0,,2,
27,27,1655,1655,Grand River Hospital - Freeport Campus,,  43.425699, -80.410941,,,0,,1,
27,27,1647,1647,Morrison / Grand River Hospital - Freeport Campus,,  43.426033, -80.413406,,,0,,1,
27,27,1648,1648,Morrison / Grand River Blvd.,,  43.427858, -80.414463,,,0,,2,
27,27,1649,1649,Morrison / Path To Morrison Park,,  43.429993, -80.416382,,,0,,1,
27,27,1650,1650,Morrison / Grand River Blvd.,,  43.432100, -80.414608,,,0,,1,
27,27,1651,1651,Quinte / Morrison,,  43.433607, -80.415421,,,0,,2,
27,27,1652,1652,Morrison / Quinte,,  43.431172, -80.416272,,,0,,1,
27,27,1653,1653,Morrison / Path To Morrison Park,,  43.429849, -80.416371,,,0,,1,
27,27,2479,2479,Morrison / Grand River Blvd.,,  43.428024, -80.414748,,,0,,2,
27,27,1656,1656,Grand River Blvd. / River,,  43.426920, -80.419147,,,0,,1,
27,27,1657,1657,Morgan / River,,  43.427684, -80.420976,,,0,,1,
27,27,1658,1658,Morgan / Greendale,,  43.427343, -80.424747,,,0,,2,
27,27,1659,1659,Morgan / Southill,,  43.428230, -80.427605,,,0,,2,
27,27,1660,1660,Morgan / Fairway,,  43.429705, -80.430828,,,0,,2,
28,28,2497,2497,Wilson / Balfour,,  43.422791, -80.444870,,,0,,2,
28,28,2506,2506,Wilson / Traynor,,  43.423506, -80.446464,,,0,,2,
28,28,2597,2597,Wilson / Woodhaven,,  43.425015, -80.449329,,,0,,1,
28,28,2599,2599,Wilson / Franklin,,  43.426814, -80.452797,,,0,,1,
28,28,2600,2600,Wilson / Fifth,,  43.428004, -80.455010,,,0,,1,
28,28,2601,2601,Fourth / Wilson,,  43.429762, -80.455390,,,0,,1,
28,28,2602,2602,Fourth / Connaught,,  43.431046, -80.454686,,,0,,1,
28,28,2603,2603,Fourth / Kingsway,,  43.434431, -80.452617,,,0,,1,
28,28,2968,2968,Franklin / Weber,,  43.434014, -80.448053,,,0,,1,
28,28,2624,2624,Franklin / Prospect,,  43.436078, -80.446881,,,0,,1,
28,28,2625,2625,Franklin / Shuh,,  43.437883, -80.445802,,,0,,1,
28,28,2626,2626,Franklin / Trafalgar,,  43.440155, -80.446387,,,0,,1,
28,28,2627,2627,Franklin / Kenneth,,  43.441238, -80.446859,,,0,,1,
28,28,2628,2628,Franklin / Dalewood,,  43.443241, -80.447718,,,0,,2,
28,28,2629,2629,Franklin / Bradley,,  43.444666, -80.448348,,,0,,1,
28,28,2630,2630,Franklin / Dreger,,  43.446491, -80.449480,,,0,,1,
28,28,2922,2922,Ottawa / Midland,,  43.449438, -80.448301,,,0,,1,
28,28,2926,2926,Ottawa / Midland,,  43.449735, -80.447988,,,0,,2,
28,28,2853,2853,Franklin / Ottawa,,  43.448216, -80.450701,,,0,,1,
28,28,2854,2854,Franklin / Penrose,,  43.446347, -80.449544,,,0,,1,
28,28,2855,2855,Franklin / Bradley,,  43.444595, -80.448484,,,0,,1,
28,28,2856,2856,Franklin / Dalewood,,  43.443368, -80.447952,,,0,,1,
28,28,2857,2857,Franklin / Kenneth,,  43.441762, -80.447250,,,0,,1,
28,28,2858,2858,Franklin / Trafalgar,,  43.439758, -80.446378,,,0,,1,
28,28,2859,2859,Franklin / Shuh,,  43.437875, -80.445963,,,0,,1,
28,28,2860,2860,Franklin / Prospect,,  43.435899, -80.447080,,,0,,2,
28,28,2967,2967,Franklin / Weber,,  43.434220, -80.448121,,,0,,1,
28,28,2575,2575,Fourth / Kingsway,,  43.434252, -80.452816,,,0,,1,
28,28,2576,2576,Fourth / Connaught,,  43.431370, -80.454609,,,0,,1,
28,28,2591,2591,Fourth / Wilson,,  43.429161, -80.455902,,,0,,1,
28,28,2592,2592,Wilson / Franklin,,  43.426878, -80.453056,,,0,,2,
28,28,2593,2593,Wilson / Fairlawn,,  43.424471, -80.448568,,,0,,1,
28,28,2594,2594,Wilson / Traynor,,  43.423544, -80.446810,,,0,,1,
28,28,2595,2595,Wilson / Balfour,,  43.422743, -80.445088,,,0,,1,
29,29,4003,4003,The Boardwalk Station,,  43.435448, -80.561022,,https://www.grt.ca/en/schedules-maps/platform-layouts-ION-connections.aspx,0,place_TBW,1,
29,29,3692,3692,Keats Way / Keatswood,,  43.455826, -80.573222,,,0,,1,
29,29,3693,3693,Keats Way /  Beechwood,,  43.456493, -80.571154,,,0,,1,
29,29,3694,3694,Keats Way / Leighland,,  43.457473, -80.568254,,,0,,2,
29,29,3695,3695,Keats Way / Beckwith,,  43.456722, -80.564873,,,0,,2,
29,29,3463,3463,Keats Way / Sandford Fleming,,  43.456007, -80.561751,,,0,,2,
29,29,3464,3464,Keats Way / Fischer-Hallman,,  43.458205, -80.557260,,,0,,1,
29,29,3149,3149,Keats Way / Midwood,,  43.457879, -80.554469,,,0,,1,
29,29,3150,3150,Keats Way / Path To Mccarron,,  43.457266, -80.551816,,,0,,1,
29,29,3151,3151,Keats Way / Amos,,  43.458430, -80.549051,,,0,,1,
29,29,3631,3631,University Ave. / Westmount,,  43.464131, -80.541393,,,0,,1,
29,29,2786,2786,University Ave. / Regina,,  43.476672, -80.523283,,,0,place_KUN,1,
29,29,2833,2833,Weber / Marshall,,  43.475044, -80.517448,,,0,,1,
29,29,2834,2834,Weber / Noecker,,  43.473526, -80.516199,,,0,,1,
29,29,4058,4058,Lincoln / Weber,,  43.471273, -80.513242,,,0,,1,
29,29,4059,4059,Lincoln / Ellis,,  43.474442, -80.509803,,,0,,1,
29,29,4061,4061,Lincoln / Marshall,,  43.475963, -80.509045,,,0,,1,
29,29,2793,2793,Lincoln / Mayfield,,  43.479199, -80.507770,,,0,,1,
29,29,2794,2794,Lincoln / Bluevale,,  43.482018, -80.505818,,,0,,1,
29,29,2795,2795,Lincoln / University Ave.,,  43.483331, -80.507625,,,0,,1,
29,29,3672,3672,Bridge / University Ave.,,  43.489722, -80.494141,,,0,,1,
29,29,3673,3673,Bridge / Crimson,,  43.492905, -80.497739,,,0,,2,
29,29,3674,3674,Dansbury / Eiwo,,  43.495834, -80.502390,,,0,,2,
29,29,3675,3675,Dansbury / Lee,,  43.494682, -80.504663,,,0,,2,
29,29,2821,2821,Lee / Dunvegan,,  43.493250, -80.504452,,,0,,1,
29,29,3676,3676,Dunvegan / Bairstow,,  43.493248, -80.507340,,,0,,2,
29,29,2803,2803,Lexington / Dunvegan,,  43.494572, -80.510366,,,0,,1,
29,29,2804,2804,Lexington / Davenport,,  43.493096, -80.512617,,,0,,1,
29,29,2805,2805,Davenport / Foxhunt,,  43.494333, -80.513547,,,0,,1,
29,29,2806,2806,Davenport / Path To Anndale,,  43.496873, -80.515901,,,0,,1,
29,29,2807,2807,Davenport / Kidsability Centre,,  43.497729, -80.518034,,,0,,1,
29,29,2808,2808,Davenport / Kingscourt,,  43.497129, -80.521143,,,0,,1,
29,29,3882,3882,Davenport / Conestoga Mall,,  43.498348, -80.524053,,,0,,1,
29,29,1129,1129,Conestoga Station,,  43.498078, -80.528421,,https://www.grt.ca/en/schedules-maps/platform-layouts-ION-connections.aspx,0,place_CML,1,
29,29,2811,2811,Davenport / Old Abbey,,  43.499154, -80.525135,,,0,,1,
29,29,2812,2812,Davenport / Conestoga Mall,,  43.497345, -80.523269,,,0,,1,
29,29,2813,2813,Davenport / Kingscourt,,  43.497055, -80.520612,,,0,,1,
29,29,2814,2814,Davenport / Kidsability Centre,,  43.497487, -80.518481,,,0,,1,
29,29,2815,2815,Davenport / Path To Redfox,,  43.496513, -80.515780,,,0,,1,
29,29,2817,2817,Lexington / Davenport,,  43.493014, -80.512395,,,0,,1,
29,29,3677,3677,Lexington / Dunvegan,,  43.494544, -80.510205,,,0,,1,
29,29,3678,3678,Dunvegan / Bairstow,,  43.493501, -80.508470,,,0,,1,
29,29,2800,2800,Lee / Dunvegan,,  43.493520, -80.504438,,,0,,1,
29,29,2801,2801,Lee / Dansbury,,  43.494493, -80.504690,,,0,,1,
29,29,3679,3679,Bridge / Dansbury,,  43.495951, -80.501284,,,0,,1,
29,29,3680,3680,Bridge / Crimson,,  43.492779, -80.497808,,,0,,1,
29,29,2826,2826,Lincoln / Bluevale,,  43.482598, -80.506765,,,0,,1,
29,29,2827,2827,Lincoln / Mayfield,,  43.479756, -80.507530,,,0,,2,
29,29,4062,4062,Lincoln / Marshall,,  43.476343, -80.509278,,,0,,1,
29,29,4060,4060,Lincoln / Ellis,,  43.474353, -80.510026,,,0,,1,
29,29,4057,4057,Lincoln / Weber,,  43.471278, -80.513589,,,0,,1,
29,29,2666,2666,Weber / Mackay,,  43.472260, -80.514861,,,0,,1,
29,29,2668,2668,Weber / Noecker,,  43.473489, -80.515915,,,0,,1,
29,29,2667,2667,Weber / Marshall,,  43.474989, -80.517114,,,0,,1,
29,29,2671,2671,University Ave. / Regina,,  43.476852, -80.523282,,,0,,1,
29,29,3589,3589,University Ave. / Westmount,,  43.464500, -80.541465,,,0,,1,
29,29,3159,3159,Keats Way / Path To Mccarron,,  43.457329, -80.552026,,,0,,1,
29,29,3160,3160,Keats Way / Candlewood,,  43.458195, -80.554590,,,0,,1,
29,29,3907,3907,Keats Way / Fischer-Hallman,,  43.458269, -80.557532,,,0,,1,
29,29,1974,1974,Keats Way / Sandford Fleming,,  43.456000, -80.562208,,,0,,1,
29,29,1975,1975,Keats Way / Brynhurst,,  43.456965, -80.564908,,,0,,2,
29,29,1976,1976,Keats Way / Leighland,,  43.457644, -80.568327,,,0,,2,
29,29,1977,1977,Keats Way / Beechwood,,  43.456700, -80.571041,,,0,,1,
29,29,1978,1978,Keats Way / Erbsville,,  43.455916, -80.573284,,,0,,1,
3,3,3021,3021,Kingswood / Lucerne,,  43.421433, -80.484569,,,0,,2,
3,3,1134,1134,Flint / Kingswood,,  43.423474, -80.482008,,,0,,2,
3,3,3053,3053,Alpine / Ottawa,,  43.425303, -80.482968,,,0,,1,
3,3,2910,2910,Ottawa / Hoffman,,  43.431453, -80.479503,,,0,,1,
3,3,2911,2911,Mill Station,,  43.434329, -80.479072,,https://www.grt.ca/en/schedules-maps/platform-layouts-ION-connections.aspx,0,,1,
3,3,2912,2912,Mill / Borden,,  43.435221, -80.483056,,,0,,2,
3,3,2913,2913,Mill / Heiman,,  43.435845, -80.485658,,,0,,2,
3,3,2914,2914,Stirling / Mill,,  43.437822, -80.487179,,,0,,1,
3,3,2750,2750,Courtland / Stirling,,  43.441405, -80.484523,,,0,,1,
3,3,2751,2751,Courtland / Madison,,  43.442629, -80.486502,,,0,,1,
3,3,2752,2752,Courtland / Peter,,  43.444127, -80.489196,,,0,,1,
3,3,2753,2753,Courtland / Benton,,  43.445243, -80.491151,,,0,,1,
3,3,5033,5033,Williamsburg / Ottawa (Temporary Stop),,  43.418732, -80.507878,,,0,,2,
3,3,2898,2898,Ottawa / Pinedale,,  43.419856, -80.504681,,,0,,1,
3,3,2901,2901,Ottawa / Howland,,  43.421149, -80.496738,,,0,,1,
3,3,2902,2902,Elmsdale / Ottawa,,  43.422187, -80.494174,,,0,,1,
3,3,2903,2903,Elmsdale / Chandler,,  43.424044, -80.496678,,,0,,1,
3,3,2904,2904,Chandler / Bonfield,,  43.424650, -80.495203,,,0,,1,
3,3,2905,2905,Strasburg / Strasburg Transit Garage,,  43.425014, -80.490173,,,0,,1,
3,3,1385,1385,Queen Station (Charles / Benton),,  43.448042, -80.487782,,https://www.grt.ca/en/schedules-maps/platform-layouts-ION-connections.aspx,0,,1,
3,3,2924,2924,Kitchener Market Station,,  43.446291, -80.483802,,https://www.grt.ca/en/schedules-maps/platform-layouts-ION-connections.aspx,0,,1,
3,3,2925,2925,Charles / Cameron Heights Collegiate Institute,,  43.444448, -80.480080,,,0,,1,
3,3,1387,1387,Charles / Stirling,,  43.443779, -80.478682,,,0,,1,
3,3,2927,2927,Stirling / Kaufman Park,,  43.442821, -80.481088,,,0,,1,
3,3,2928,2928,Stirling / Courtland,,  43.441529, -80.484102,,,0,,1,
3,3,2929,2929,Stirling / Mill,,  43.438408, -80.486909,,,0,,1,
3,3,2930,2930,Mill / Heiman,,  43.436108, -80.486100,,,0,,2,
3,3,2931,2931,Mill / Borden,,  43.435076, -80.482909,,,0,,1,
3,3,2932,2932,409 Mill St.,,  43.434612, -80.479947,,,0,,1,
3,3,2933,2933,Mill Station,,  43.434176, -80.479024,,https://www.grt.ca/en/schedules-maps/platform-layouts-ION-connections.aspx,0,,1,
3,3,2934,2934,Ottawa / Hoffman,,  43.431972, -80.479537,,,0,,1,
3,3,3052,3052,Alpine / Ottawa,,  43.424983, -80.483093,,,0,,1,
3,3,1151,1151,Flint / Kingswood,,  43.423232, -80.482219,,,0,,2,
3,3,3051,3051,Kingswood / Strasburg,,  43.421275, -80.485447,,,0,,2,
3,3,1192,1192,Strasburg / Ottawa,,  43.423104, -80.487737,,,0,,2,
3,3,2863,2863,Strasburg / Strasburg Transit Garage,,  43.425358, -80.490293,,,0,,1,
3,3,2864,2864,Chandler / Bonfield,,  43.424740, -80.495289,,,0,,1,
3,3,2865,2865,Elmsdale / Chandler,,  43.423855, -80.496692,,,0,,1,
3,3,2866,2866,Elmsdale / Ottawa,,  43.422016, -80.494224,,,0,,1,
3,3,2867,2867,Ottawa / Howland,,  43.421228, -80.497258,,,0,,1,
3,3,2868,2868,Ottawa / Path To Chandler,,  43.420676, -80.500585,,,0,,1,
3,3,2870,2870,Ottawa / Howe,,  43.419657, -80.506597,,,0,,1,
3,3,2704,2704,Ottawa / International,,  43.413076, -80.516374,,,0,,1,
30,30,2515,2515,Ring Rd. / U.W. - South Campus Hall,,  43.468601, -80.540284,,,0,,1,
30,30,2516,2516,Ring Rd. / U.W. - Environment 3,,  43.467795, -80.543591,,,0,,1,
30,30,2530,2530,Ring Rd. / U.W. - Quantum Nano Centre,,  43.470728, -80.544474,,,0,,1,
30,30,2518,2518,Ring Rd. / U.W. - University Club,,  43.472738, -80.547992,,,0,,1,
30,30,2519,2519,Ring Rd. / U.W. - B. C. Matthews Hall,,  43.473938, -80.546240,,,0,,1,
30,30,1078,1078,University Of Waterloo Station,,  43.474450, -80.539427,,https://www.grt.ca/en/schedules-maps/platform-layouts-ION-connections.aspx,0,,1,6
301,301,6001,6001,Conestoga Station,,  43.498302, -80.529522,,https://www.grt.ca/en/schedules-maps/platform-layouts-ION-connections.aspx,0,,1,1
301,301,6002,6002,Northfield Station,,  43.497196, -80.543232,,https://www.grt.ca/en/schedules-maps/platform-layouts-ION-connections.aspx,0,,1,1
301,301,6003,6003,Research & Technology Station,,  43.481613, -80.545187,,https://www.grt.ca/en/schedules-maps/platform-layouts-ION-connections.aspx,0,,1,1
301,301,6004,6004,University Of Waterloo Station,,  43.473361, -80.541405,,https://www.grt.ca/en/schedules-maps/platform-layouts-ION-connections.aspx,0,,1,1
301,301,6005,6005,Laurier-Waterloo Park Station,,  43.468861, -80.534445,,https://www.grt.ca/en/schedules-maps/platform-layouts-ION-connections.aspx,0,,1,1
301,301,6006,6006,Willis Way Station,,  43.462158, -80.523373,,https://www.grt.ca/en/schedules-maps/platform-layouts-ION-connections.aspx,0,,1,
301,301,6007,6007,Allen Station,,  43.459837, -80.518392,,https://www.grt.ca/en/schedules-maps/platform-layouts-ION-connections.aspx,0,,1,1
301,301,6008,6008,Grand River Hospital Station,,  43.457277, -80.512074,,https://www.grt.ca/en/schedules-maps/platform-layouts-ION-connections.aspx,0,place_GRH,1,1
301,301,6009,6009,Central Station,,  43.453089, -80.499175,,https://www.grt.ca/en/schedules-maps/platform-layouts-ION-connections.aspx,0,,1,1
301,301,6010,6010,Victoria Park Station,,  43.450190, -80.493692,,https://www.grt.ca/en/schedules-maps/platform-layouts-ION-connections.aspx,0,,1,
301,301,6011,6011,Queen Station,,  43.448613, -80.489361,,https://www.grt.ca/en/schedules-maps/platform-layouts-ION-connections.aspx,0,,1,
301,301,6012,6012,Kitchener Market Station,,  43.446298, -80.483636,,https://www.grt.ca/en/schedules-maps/platform-layouts-ION-connections.aspx,0,,1,1
301,301,6013,6013,Borden Station,,  43.442396, -80.475371,,https://www.grt.ca/en/schedules-maps/platform-layouts-ION-connections.aspx,0,,1,1
301,301,6014,6014,Mill Station,,  43.433646, -80.477964,,https://www.grt.ca/en/schedules-maps/platform-layouts-ION-connections.aspx,0,,1,1
301,301,6015,6015,Block Line Station,,  43.422742, -80.463088,,https://www.grt.ca/en/schedules-maps/platform-layouts-ION-connections.aspx,0,,1,1
301,301,6016,6016,Fairway Station,,  43.422304, -80.441816,,https://www.grt.ca/en/schedules-maps/platform-layouts-ION-connections.aspx,0,,1,1
301,301,6108,6108,Fairway Station,,  43.422363, -80.441843,,https://www.grt.ca/en/schedules-maps/platform-layouts-ION-connections.aspx,0,,1,2
301,301,6109,6109,Block Line Station,,  43.422834, -80.462929,,https://www.grt.ca/en/schedules-maps/platform-layouts-ION-connections.aspx,0,,1,2
301,301,6110,6110,Mill Station,,  43.433665, -80.477916,,https://www.grt.ca/en/schedules-maps/platform-layouts-ION-connections.aspx,0,,1,2
301,301,6111,6111,Borden Station,,  43.442427, -80.475365,,https://www.grt.ca/en/schedules-maps/platform-layouts-ION-connections.aspx,0,,1,2
301,301,6112,6112,Kitchener Market Station,,  43.446332, -80.483609,,https://www.grt.ca/en/schedules-maps/platform-layouts-ION-connections.aspx,0,,1,2
301,301,6113,6113,Frederick Station,,  43.449639, -80.487361,,https://www.grt.ca/en/schedules-maps/platform-layouts-ION-connections.aspx,0,,1,
301,301,6114,6114,Kitchener City Hall Station,,  43.451950, -80.490834,,https://www.grt.ca/en/schedules-maps/platform-layouts-ION-connections.aspx,0,,1,
301,301,6115,6115,Central Station,,  43.453270, -80.499053,,https://www.grt.ca/en/schedules-maps/platform-layouts-ION-connections.aspx,0,,1,2
301,301,6116,6116,Grand River Hospital Station,,  43.457308, -80.512038,,https://www.grt.ca/en/schedules-maps/platform-layouts-ION-connections.aspx,0,place_GRH,1,2
301,301,6117,6117,Allen Station,,  43.459858, -80.518348,,https://www.grt.ca/en/schedules-maps/platform-layouts-ION-connections.aspx,0,,1,2
301,301,6118,6118,Waterloo Public Square Station,,  43.464151, -80.523003,,https://www.grt.ca/en/schedules-maps/platform-layouts-ION-connections.aspx,0,,1,
301,301,6119,6119,Laurier-Waterloo Park Station,,  43.468887, -80.534401,,https://www.grt.ca/en/schedules-maps/platform-layouts-ION-connections.aspx,0,,1,2
301,301,6120,6120,University Of Waterloo Station,,  43.473413, -80.541297,,https://www.grt.ca/en/schedules-maps/platform-layouts-ION-connections.aspx,0,,1,2
301,301,6121,6121,Research & Technology Station,,  43.481617, -80.545132,,https://www.grt.ca/en/schedules-maps/platform-layouts-ION-connections.aspx,0,,1,2
301,301,6122,6122,Northfield Station,,  43.497214, -80.543180,,https://www.grt.ca/en/schedules-maps/platform-layouts-ION-connections.aspx,0,,1,2
301,301,6123,6123,Conestoga Station,,  43.498280, -80.529600,,https://www.grt.ca/en/schedules-maps/platform-layouts-ION-connections.aspx,0,,1,2
302,302,6101,6101,Ainslie Terminal,,  43.357650, -80.313447,,https://www.grt.ca/en/schedules-maps/platform-layouts-ION-connections.aspx,0,place_AST,1,
302,302,6102,6102,Delta Station,,  43.372839, -80.318227,,https://www.grt.ca/en/schedules-maps/platform-layouts-ION-connections.aspx,0,,1,
302,302,6103,6103,Can-Amera Station,,  43.386531, -80.321013,,https://www.grt.ca/en/schedules-maps/platform-layouts-ION-connections.aspx,0,,1,
302,302,6104,6104,Cambridge Centre Station,,  43.392716, -80.322964,,https://www.grt.ca/en/schedules-maps/platform-layouts-ION-connections.aspx,0,place_CBC,1,
302,302,6105,6105,Pinebush Station,,  43.407758, -80.327778,,https://www.grt.ca/en/schedules-maps/platform-layouts-ION-connections.aspx,0,,1,
302,302,6107,6107,Sportsworld Station,,  43.410011, -80.393311,,https://www.grt.ca/en/schedules-maps/platform-layouts-ION-connections.aspx,0,place_SPW,1,
302,302,6024,6024,Fairway Station,,  43.422375, -80.442134,,https://www.grt.ca/en/schedules-maps/platform-layouts-ION-connections.aspx,0,place_FVM,1,3
302,302,6017,6017,Sportsworld Station,,  43.410261, -80.393142,,https://www.grt.ca/en/schedules-maps/platform-layouts-ION-connections.aspx,0,place_SPW,1,
302,302,6019,6019,Pinebush Station,,  43.407589, -80.328188,,https://www.grt.ca/en/schedules-maps/platform-layouts-ION-connections.aspx,0,,1,
302,302,6020,6020,Cambridge Centre Station,,  43.392613, -80.322277,,https://www.grt.ca/en/schedules-maps/platform-layouts-ION-connections.aspx,0,place_CBC,1,
302,302,6021,6021,Can-Amera Station,,  43.385258, -80.321058,,https://www.grt.ca/en/schedules-maps/platform-layouts-ION-connections.aspx,0,,1,
302,302,6022,6022,Delta Station,,  43.373722, -80.318837,,https://www.grt.ca/en/schedules-maps/platform-layouts-ION-connections.aspx,0,,1,
31,31,4005,4005,Conestoga Station,,  43.498406, -80.529371,,https://www.grt.ca/en/schedules-maps/platform-layouts-ION-connections.aspx,0,place_CML,1,
31,31,3760,3760,Frobisher / Superior,,  43.509921, -80.524494,,,0,,1,
31,31,3593,3593,Bridge / Frobisher,,  43.512001, -80.522547,,,0,,2,
31,31,4051,4051,Bridge / Northfield,,  43.511063, -80.520812,,,0,,1,
31,31,3781,3781,Chesapeake / Brigantine,,  43.509152, -80.517287,,,0,,2,
31,31,1133,1133,Chesapeake / Seawind,,  43.510677, -80.513898,,,0,,2,
31,31,3780,3780,Chesapeake / Pleasant Bay,,  43.511308, -80.509748,,,0,,2,
31,31,3782,3782,Chesapeake / Sandy Cove,,  43.510051, -80.506443,,,0,,2,
31,31,3594,3594,New Bedford / Starboard,,  43.510618, -80.504298,,,0,,1,
31,31,3595,3595,New Bedford / Eastbridge,,  43.511081, -80.500929,,,0,,2,
31,31,2038,2038,Eastbridge / Bluenose Park,,  43.508666, -80.500677,,,0,,2,
31,31,2039,2039,Eastbridge / Windjammer,,  43.505644, -80.503411,,,0,,2,
31,31,2040,2040,Eastbridge / Mayflower,,  43.504574, -80.505931,,,0,,2,
31,31,2041,2041,Eastbridge / Bridge,,  43.503884, -80.509294,,,0,,2,
31,31,3783,3783,Bridge / Whitmore,,  43.500758, -80.506395,,,0,,1,
31,31,3768,3768,Lexington / Bridge,,  43.498494, -80.504558,,,0,,1,
31,31,3764,3764,Lexington / Lee,,  43.497204, -80.506497,,,0,,1,
31,31,3900,3900,Lexington / Davenport,,  43.493059, -80.512580,,,0,,1,
31,31,3769,3769,Lexington / Dearborn Blvd.,,  43.490216, -80.516948,,,0,,1,
31,31,3770,3770,Lexington / Dearborn Pl.,,  43.487556, -80.518474,,,0,,2,
31,31,3771,3771,Columbia / Marsland,,  43.484386, -80.519869,,,0,,2,
31,31,3772,3772,Columbia / Weber,,  43.483542, -80.522160,,,0,,2,
31,31,2511,2511,Columbia / Holly,,  43.480705, -80.529694,,,0,,1,
31,31,2513,2513,Columbia / Albert,,  43.478791, -80.535038,,,0,,1,
31,31,2514,2514,Columbia / Lester,,  43.477972, -80.537443,,,0,,1,
31,31,1100,1100,450 Columbia St. W.,,  43.467000, -80.568298,,,0,,1,
31,31,1102,1102,Columbia / Chancery,,  43.465165, -80.573510,,,0,,1,
31,31,1104,1104,Columbia / Cavendish,,  43.464015, -80.576787,,,0,,2,
31,31,1105,1105,Columbia / Erbsville,,  43.462472, -80.580778,,,0,,1,
31,31,4017,4017,Columbia / Salzburg,,  43.460377, -80.582852,,,0,,2,
31,31,4022,4022,Columbia / Zurich,,  43.457023, -80.582990,,,0,,2,
31,31,4020,4020,Columbia / St Moritz,,  43.453126, -80.584289,,,0,,2,
31,31,1213,1213,Columbia / Ladyslipper,,  43.449684, -80.586504,,,0,,1,
31,31,4023,4023,Columbia / Sundew,,  43.449199, -80.590271,,,0,,1,
31,31,1214,1214,Columbia / Platinum,,  43.449196, -80.587126,,,0,,1,
31,31,4019,4019,Columbia / St Moritz,,  43.453268, -80.584027,,,0,,2,
31,31,4021,4021,Columbia / Lucerne,,  43.457191, -80.582655,,,0,,2,
31,31,4018,4018,Columbia / Salzburg,,  43.460474, -80.582535,,,0,,2,
31,31,4012,4012,Columbia / Erbsville,,  43.461955, -80.581190,,,0,,2,
31,31,4013,4013,Columbia / Cavendish,,  43.463902, -80.576580,,,0,,1,
31,31,4024,4024,Columbia / Bennington,,  43.465030, -80.573294,,,0,,1,
31,31,4025,4025,450 Columbia St. W.,,  43.466509, -80.569085,,,0,,1,
31,31,2522,2522,Columbia / Lester,,  43.477864, -80.537271,,,0,,1,
31,31,2523,2523,Columbia / Albert,,  43.478549, -80.535337,,,0,,1,
31,31,2525,2525,Columbia / Holly,,  43.480793, -80.529075,,,0,,1,
31,31,2526,2526,Columbia / King,,  43.481718, -80.526384,,,0,,1,
31,31,3773,3773,Columbia / Weber,,  43.483042, -80.523127,,,0,,2,
31,31,3747,3747,Columbia / Marsland,,  43.484301, -80.519699,,,0,,2,
31,31,3622,3622,Lexington / Dearborn Pl.,,  43.487023, -80.518243,,,0,,2,
31,31,3748,3748,Lexington / Dearborn Blvd,,  43.489989, -80.516958,,,0,,1,
31,31,2819,2819,Lexington / Lee,,  43.496584, -80.507196,,,0,,1,
31,31,3749,3749,Lexington / Bridge,,  43.498024, -80.505044,,,0,,1,
31,31,3790,3790,Bridge / Whitmore,,  43.501445, -80.506995,,,0,,1,
31,31,1925,1925,Bridge / Eastbridge,,  43.503583, -80.509202,,,0,,1,
31,31,1926,1926,Eastbridge / Cabot,,  43.504486, -80.505345,,,0,,2,
31,31,1927,1927,Eastbridge / Bonavista,,  43.506133, -80.501935,,,0,,2,
31,31,1928,1928,Eastbridge / Bluenose Park,,  43.508603, -80.500492,,,0,,2,
31,31,1929,1929,Eastbridge / New Bedford,,  43.510629, -80.500487,,,0,,2,
31,31,3598,3598,New Bedford / Starboard,,  43.510673, -80.504446,,,0,,1,
31,31,3599,3599,New Bedford / Chesapeake,,  43.510075, -80.505676,,,0,,2,
31,31,3443,3443,Chesapeake / Pleasant Bay,,  43.511480, -80.509932,,,0,,2,
31,31,1121,1121,Chesapeake / Chesapeake Cres.,,  43.511001, -80.513809,,,0,,2,
31,31,4016,4016,Bridge / Chesapeake (North),,  43.509091, -80.517913,,,0,,2,
31,31,4050,4050,Bridge / Labrador,,  43.510917, -80.520095,,,0,,1,
31,31,3757,3757,Frobisher / Bridge,,  43.511923, -80.523278,,,0,,2,
31,31,3758,3758,Frobisher / Superior,,  43.510253, -80.524405,,,0,,2,
31,31,3759,3759,Frobisher / Mcmurray,,  43.507552, -80.526578,,,0,,1,
31,31,2067,2067,Frobisher / Davenport,,  43.505286, -80.529528,,,0,,2,
31,31,1204,1204,Davenport / Northfield,,  43.502525, -80.528077,,,0,,1,
31,31,3393,3393,Davenport / Old Abbey,,  43.499778, -80.525724,,,0,,2,
33,33,2965,2965,Wilderness / Pine Martin,,  43.410621, -80.513908,,,0,,2,
33,33,2966,2966,Wilderness / Activa,,  43.410264, -80.510527,,,0,,1,
33,33,3502,3502,Fischer-Hallman / Path To Bush Clover,,  43.410391, -80.504802,,,0,,2,
33,33,3506,3506,1541 Fischer-Hallman Rd.,,  43.389826, -80.491261,,,0,,2,
33,33,3700,3700,Seabrook / Fischer-Hallman,,  43.386957, -80.491294,,,0,,2,
33,33,3701,3701,Ludolph / Olivia,,  43.384743, -80.495249,,,0,,1,
33,33,3702,3702,Ludolph / West Oak,,  43.383310, -80.494815,,,0,,1,
33,33,3703,3703,Ludolph / Huron,,  43.381653, -80.494309,,,0,,1,
33,33,3704,3704,Huron / Fischer-Hallman,,  43.382135, -80.489275,,,0,,2,
33,33,3705,3705,Huron / Woodbine,,  43.382951, -80.484133,,,0,,2,
33,33,3706,3706,Woodbine / Maitland,,  43.386126, -80.484072,,,0,,1,
33,33,3707,3707,Woodbine / Parkvale,,  43.388624, -80.485714,,,0,,1,
33,33,3708,3708,Parkvale / Parkvale Park,,  43.389504, -80.481833,,,0,,1,
33,33,3709,3709,Parkvale / Woodbine,,  43.389379, -80.479208,,,0,,1,
33,33,3710,3710,Parkvale / Featherstone,,  43.388832, -80.476198,,,0,,1,
33,33,3711,3711,Parkvale / Huron,,  43.389480, -80.472557,,,0,,1,
33,33,2016,2016,Strasburg / Huron,,  43.393109, -80.466837,,,0,,2,
33,33,1025,1025,Block Line / Country Hill,,  43.417044, -80.476026,,,0,,1,
33,33,2026,2026,Block Line Station,,  43.423610, -80.463398,,https://www.grt.ca/en/schedules-maps/platform-layouts-ION-connections.aspx,0,,1,
33,33,2027,2027,Hayward / Courtland,,  43.426420, -80.466750,,,0,,2,
33,33,2085,2085,Lennox Lewis / The Family Centre,,  43.424647, -80.470942,,,0,,2,
33,33,1032,1032,Lennox Lewis / Activa Sportsplex,,  43.422918, -80.468881,,,0,,1,
33,33,2087,2087,Block Line / Country Hill,,  43.417160, -80.476266,,,0,,1,
33,33,1808,1808,Strasburg / Huron,,  43.392600, -80.466786,,,0,,1,
33,33,3733,3733,Huron / Parkvale,,  43.389181, -80.471630,,,0,,1,
33,33,3734,3734,Parkvale / Huron Natural Area,,  43.390007, -80.474563,,,0,,1,
33,33,3735,3735,Parkvale / Woodbine,,  43.389324, -80.478816,,,0,,1,
33,33,3736,3736,Parkvale / Parkvale Park,,  43.389555, -80.482012,,,0,,1,
33,33,3737,3737,Parkvale / Woodbine,,  43.388905, -80.485721,,,0,,1,
33,33,3738,3738,Woodbine / Sophia,,  43.386658, -80.484592,,,0,,1,
33,33,3739,3739,Woodbine / Huron,,  43.383537, -80.483421,,,0,,1,
33,33,3632,3632,Huron / Fischer-Hallman,,  43.382519, -80.487694,,,0,,1,
33,33,3633,3633,Ludolph / Huron,,  43.381697, -80.494071,,,0,,1,
33,33,3634,3634,Ludolph / West Oak,,  43.383392, -80.494676,,,0,,1,
33,33,3635,3635,Ludolph / Olivia,,  43.384746, -80.495112,,,0,,1,
33,33,3636,3636,Seabrook / Fischer-Hallman,,  43.386827, -80.491249,,,0,,1,
33,33,3666,3666,1548 Fischer-Hallman Rd.,,  43.389538, -80.490935,,,0,,1,
33,33,3669,3669,Fischer-Hallman / Cotton Grass,,  43.408345, -80.502072,,,0,,2,
33,33,3670,3670,Fischer-Hallman / Path To Bush Clover,,  43.410791, -80.504965,,,0,,2,
33,33,2076,2076,Activa / Grey Fox,,  43.413226, -80.508932,,,0,,2,
33,33,2987,2987,Activa / Wilderness,,  43.410461, -80.510044,,,0,,1,
33,33,2988,2988,Wilderness / Mountain Mint,,  43.410738, -80.513883,,,0,,2,
33,33,2989,2989,Wilderness / Grey Fox,,  43.411818, -80.515850,,,0,,2,
34,34,3460,3460,Shirley / Bingemans Centre Dr.,,  43.473917, -80.441893,,,0,,2,
34,34,3147,3147,Shirley / Hesh,,  43.475232, -80.438709,,,0,,2,
34,34,3148,3148,Shirley / Cedarview,,  43.476858, -80.433774,,,0,,2,
34,34,3163,3163,Shirley / Crestview,,  43.477923, -80.430784,,,0,,2,
34,34,3164,3164,Shirley / Riverview,,  43.479143, -80.428064,,,0,,2,
34,34,3571,3571,Centennial / Victoria,,  43.475268, -80.429214,,,0,,2,
34,34,3572,3572,75 Centennial Rd.,,  43.473067, -80.430112,,,0,,2,
34,34,4011,4011,Centennial / Forwell,,  43.471850, -80.433610,,,0,,2,
34,34,3573,3573,Forwell / Victoria,,  43.473145, -80.436788,,,0,,2,
34,34,3431,3431,Bingemans Centre Dr. / Victoria,,  43.472322, -80.441379,,,0,,1,
34,34,2656,2656,Margaret / Victoria,,  43.456795, -80.489224,,,0,,1,
34,34,2414,2414,Wellington / Margaret,,  43.458717, -80.489951,,,0,,1,
34,34,2415,2415,Wellington / St Leger,,  43.459668, -80.487087,,,0,,1,
34,34,3438,3438,Wellington / Lancaster,,  43.461083, -80.482865,,,0,,2,
34,34,3439,3439,Wellington / Patrick,,  43.462170, -80.480631,,,0,,2,
34,34,3440,3440,809 Wellington St. N.,,  43.463999, -80.475279,,,0,,2,
34,34,3441,3441,Shirley / Riverbend,,  43.466993, -80.466519,,,0,,1,
34,34,3442,3442,68 Shirley Ave.,,  43.467681, -80.463256,,,0,,1,
34,34,3447,3447,200 Shirley Ave.,,  43.468797, -80.459590,,,0,,1,
34,34,3449,3449,274 Shirley Ave.,,  43.469859, -80.456592,,,0,,1,
34,34,3457,3457,400 Bingemans Centre Dr.,,  43.470794, -80.452524,,,0,,1,
34,34,3458,3458,Bingemans Centre Dr. / Bingemans,,  43.471641, -80.448845,,,0,,2,
34,34,3459,3459,540 Bingemans Centre Dr.,,  43.472839, -80.445474,,,0,,1,
34,34,3145,3145,Bingemans Centre Dr. / Shirley,,  43.473676, -80.443303,,,0,,2,
34,34,3421,3421,540 Bingemans Centre Dr.,,  43.472949, -80.445773,,,0,,1,
34,34,3420,3420,Bingemans Centre Dr. / Bingemans,,  43.471716, -80.449371,,,0,,2,
34,34,3419,3419,400 Bingemans Centre Dr.,,  43.471026, -80.452205,,,0,,1,
34,34,3417,3417,274 Shirley Ave.,,  43.470074, -80.456433,,,0,,1,
34,34,3406,3406,200 Shirley Ave.,,  43.469057, -80.459731,,,0,,1,
34,34,3405,3405,68 Shirley Ave.,,  43.467913, -80.464034,,,0,,1,
34,34,3404,3404,Shirley / Riverbend,,  43.467207, -80.466599,,,0,,1,
34,34,3403,3403,809 Wellington St. N.,,  43.464298, -80.475122,,,0,,2,
34,34,3402,3402,Wellington / Spring Valley,,  43.462584, -80.479937,,,0,,2,
34,34,2447,2447,Wellington / Major,,  43.460708, -80.484161,,,0,,1,
34,34,2448,2448,Wellington / St Leger,,  43.459838, -80.486826,,,0,,1,
34,34,2449,2449,Wellington / Margaret,,  43.458701, -80.490322,,,0,,1,
34,34,1023,1023,Victoria / Margaret,,  43.456337, -80.489507,,,0,,1,
35,35,1273,1273,Charles / Water,,  43.450809, -80.495423,,,0,,1,
35,35,2311,2311,Stirling / Highland,,  43.436434, -80.490976,,,0,,1,
35,35,3075,3075,Stirling / Lorne,,  43.435306, -80.494101,,,0,,1,
35,35,3076,3076,Stirling / Mausser,,  43.434135, -80.496063,,,0,,1,
35,35,2684,2684,Stirling / Homer Watson,,  43.431414, -80.496591,,,0,,1,
35,35,3083,3083,Greenbrook / Stirling,,  43.429414, -80.497301,,,0,,1,
35,35,3085,3085,Greenbrook / Forest Hill,,  43.428732, -80.501952,,,0,,2,
35,35,2828,2828,Greenbrook / Graystone,,  43.427965, -80.507826,,,0,,2,
35,35,2825,2825,Greenbrook / Stonybrook,,  43.425213, -80.512004,,,0,,2,
35,35,3091,3091,Greenbrook / Birchcliff,,  43.424023, -80.512677,,,0,,1,
35,35,3093,3093,Greenbrook / Fischer-Hallman,,  43.420902, -80.515432,,,0,,1,
35,35,3094,3094,Greenbrook / Ruskview,,  43.421044, -80.515023,,,0,,2,
35,35,3095,3095,Greenbrook / Birchcliff,,  43.424059, -80.512528,,,0,,1,
35,35,3096,3096,Greenbrook / Forest Hill Centre,,  43.426088, -80.511104,,,0,,1,
35,35,3097,3097,Greenbrook / Westmount,,  43.428213, -80.507071,,,0,,2,
35,35,3098,3098,Greenbrook / Forest Hill,,  43.428537, -80.502683,,,0,,1,
35,35,3099,3099,Greenbrook / Lakeside,,  43.428899, -80.499121,,,0,,1,
35,35,3100,3100,Greenbrook / Stirling,,  43.429519, -80.496670,,,0,,1,
35,35,2691,2691,Stirling / Homer Watson,,  43.431600, -80.496355,,,0,,1,
35,35,3102,3102,Stirling / Mausser,,  43.433676, -80.495956,,,0,,1,
35,35,3103,3103,Stirling / Lorne,,  43.435341, -80.493792,,,0,,1,
35,35,2915,2915,Stirling / Courtland,,  43.441390, -80.483963,,,0,,1,
35,35,2916,2916,Stirling / Kaufman Park,,  43.442291, -80.482025,,,0,,1,
35,35,1386,1386,Charles / Stirling,,  43.443938, -80.478418,,,0,,1,
35,35,2919,2919,Charles / Cameron Heights Collegiate Institute,,  43.445257, -80.481212,,,0,,1,
35,35,2920,2920,Kitchener Market Station,,  43.446434, -80.483628,,https://www.grt.ca/en/schedules-maps/platform-layouts-ION-connections.aspx,0,,1,
35,35,1376,1376,Queen Station (Charles / Benton),,  43.448618, -80.488854,,https://www.grt.ca/en/schedules-maps/platform-layouts-ION-connections.aspx,0,,1,
35,35,1313,1313,Victoria Park Station,,  43.450255, -80.493395,,https://www.grt.ca/en/schedules-maps/platform-layouts-ION-connections.aspx,0,,1,
35,35,1292,1292,Charles / Water,,  43.450975, -80.495498,,,0,,1,
36,36,1342,1342,Conestoga College Doon Campus - Door 6,,  43.389150, -80.406671,,,0,place_CCD,1,
36,36,3802,3802,Conestoga College Blvd. / Pinnacle,,  43.385493, -80.412871,,,0,,2,
36,36,3804,3804,Conestoga College Blvd. / Conestoga Residence,,  43.384250, -80.410982,,,0,,2,
36,36,3990,3990,Robert Ferrie / Blair Creek,,  43.374603, -80.422767,,,0,,2,
36,36,3991,3991,Thomas Slee / Robert Ferrie,,  43.375974, -80.424935,,,0,,1,
36,36,3992,3992,Thomas Slee / Terrington,,  43.375253, -80.427295,,,0,,1,
36,36,3993,3993,Thomas Slee / Path To Cranbrook,,  43.375067, -80.431534,,,0,,2,
36,36,3994,3994,Doon South / Thomas Slee,,  43.375293, -80.434154,,,0,,2,
36,36,3995,3995,Robert Ferrie / Doon South,,  43.378441, -80.433382,,,0,,2,
36,36,3996,3996,Robert Ferrie / Tilts Trail,,  43.379025, -80.438971,,,0,,2,
36,36,3997,3997,Robert Ferrie / Forest Creek,,  43.378478, -80.441685,,,0,,1,
36,36,2045,2045,Robert Ferrie / Tilts Trail,,  43.378937, -80.438862,,,0,,2,
36,36,2046,2046,Doon South / Robert Ferrie,,  43.378079, -80.433195,,,0,,2,
36,36,2047,2047,Doon South / Thomas Slee,,  43.375532, -80.434229,,,0,,2,
36,36,2048,2048,Thomas Slee / Path To Watermill,,  43.374931, -80.432220,,,0,,2,
36,36,2049,2049,Thomas Slee / Frontier,,  43.375168, -80.427191,,,0,,1,
36,36,2050,2050,Thomas Slee / Robert Ferrie,,  43.375980, -80.424510,,,0,,1,
36,36,2051,2051,Robert Ferrie / Blair Creek,,  43.374491, -80.422872,,,0,,2,
36,36,3803,3803,Conestoga College Blvd. / Conestoga Residence,,  43.384404, -80.411239,,,0,,2,
36,36,3801,3801,Conestoga College Blvd. / Pinnacle,,  43.385905, -80.412398,,,0,,2,
4,4,2319,2319,Weber / Queen,,  43.451870, -80.487054,,,0,,1,
4,4,2320,2320,Queen / Kitchener Central Library,,  43.453218, -80.486400,,,0,,1,
4,4,2654,2654,Margaret / Centre In The Square,,  43.454691, -80.485745,,,0,,1,
4,4,5001,5001,Margaret / Maynard (Temporary Stop),,  43.455602, -80.487899,,,0,,1,
4,4,2657,2657,Margaret / Wellington,,  43.458999, -80.490603,,,0,,1,
4,4,2658,2658,Margaret / Wilhelm,,  43.460755, -80.492579,,,0,,1,
4,4,2659,2659,Margaret / Guelph,,  43.463011, -80.493968,,,0,,1,
4,4,2491,2491,Margaret / Breithaupt Centre,,  43.465293, -80.496559,,,0,,1,
4,4,2492,2492,Union / Margaret,,  43.467227, -80.500313,,,0,,2,
4,4,2493,2493,Union / Ellis,,  43.466337, -80.502768,,,0,,2,
4,4,2660,2660,Union / Weber,,  43.465466, -80.505223,,,0,,1,
4,4,1005,1005,Union / Devitt,,  43.464003, -80.509253,,,0,,2,
4,4,3237,3237,Union / Lucan,,  43.463036, -80.511919,,,0,,1,
4,4,3238,3238,Union / Herbert,,  43.460444, -80.514350,,,0,,1,
4,4,3242,3242,Park / Wood,,  43.455795, -80.513571,,,0,,1,
4,4,3243,3243,Park / Green,,  43.454722, -80.511070,,,0,,1,
4,4,3244,3244,Glasgow / York,,  43.453326, -80.513171,,,0,,2,
4,4,3245,3245,Glasgow / Eden,,  43.452400, -80.515724,,,0,,1,
4,4,3246,3246,Glasgow / Belmont,,  43.451768, -80.517497,,,0,,1,
4,4,3248,3248,Glasgow / Dunbar,,  43.450579, -80.520906,,,0,,1,
4,4,3249,3249,Glasgow / Westmount,,  43.449588, -80.523681,,,0,,1,
4,4,3250,3250,Glasgow / Aberdeen,,  43.448556, -80.526730,,,0,,1,
4,4,3251,3251,Inwood / Glasgow,,  43.447379, -80.528260,,,0,,1,
4,4,3252,3252,Inwood / Westwood,,  43.445505, -80.527038,,,0,,1,
4,4,3253,3253,Westwood / Westwood Cres.,,  43.445146, -80.529586,,,0,,1,
4,4,3254,3254,Westwood / Knell,,  43.444948, -80.531652,,,0,,1,
4,4,3256,3256,Westwood / Gallarno,,  43.442513, -80.535168,,,0,,1,
4,4,3258,3258,Westwood / Glasgow,,  43.443650, -80.540164,,,0,,1,
4,4,3259,3259,Fischer-Hallman / Glasgow,,  43.442912, -80.542713,,,0,,1,
4,4,3260,3260,University Ave. / Fischer-Hallman,,  43.443805, -80.545541,,,0,,1,
4,4,3879,3879,University Ave. / Westvale,,  43.440901, -80.548784,,,0,,1,
4,4,3880,3880,University Ave. / Portsmouth,,  43.439238, -80.554025,,,0,,1,
4,4,3662,3662,University Ave. / Baker,,  43.437600, -80.558720,,,0,,1,
4,4,3663,3663,University Ave. / Countrystone,,  43.437518, -80.558406,,,0,,1,
4,4,3664,3664,University Ave. / Countrystone Park,,  43.438938, -80.554389,,,0,,1,
4,4,3264,3264,University Ave. / Path To Countrystone Pl.,,  43.440029, -80.551152,,,0,,2,
4,4,3265,3265,University Ave. / Resurrection C. S. S.,,  43.441184, -80.547375,,,0,,1,
4,4,3266,3266,Westwood / Glasgow,,  43.442716, -80.539552,,,0,,1,
4,4,3268,3268,Westwood / Gallarno,,  43.442272, -80.535689,,,0,,1,
4,4,3269,3269,Westwood / Fernwood,,  43.445009, -80.531157,,,0,,1,
4,4,3270,3270,Westwood / Westwood Cres.,,  43.445066, -80.529760,,,0,,1,
4,4,3271,3271,Westwood / Inwood,,  43.445200, -80.527399,,,0,,1,
4,4,3272,3272,Inwood / Glasgow,,  43.447723, -80.528465,,,0,,1,
4,4,3273,3273,Glasgow / Aberdeen,,  43.448315, -80.527115,,,0,,1,
4,4,3274,3274,Glasgow / Westmount,,  43.449382, -80.523992,,,0,,1,
4,4,3275,3275,Glasgow / Dunbar,,  43.450521, -80.520733,,,0,,1,
4,4,3277,3277,Glasgow / Belmont,,  43.452061, -80.516291,,,0,,1,
4,4,3278,3278,Glasgow / York,,  43.452942, -80.513891,,,0,,1,
4,4,3279,3279,Park / Green,,  43.454684, -80.510799,,,0,,1,
4,4,1900,1900,Grand River Hospital Station,,  43.457090, -80.511114,,https://www.grt.ca/en/schedules-maps/platform-layouts-ION-connections.aspx,0,,1,
4,4,1902,1902,King / Union,,  43.458477, -80.515355,,,0,,1,
4,4,3283,3283,Union / Mary,,  43.459456, -80.514852,,,0,,1,
4,4,3284,3284,Union / Herbert,,  43.460605, -80.514114,,,0,,1,
4,4,3285,3285,Union / Lucan,,  43.462669, -80.512354,,,0,,2,
4,4,1083,1083,Union / Devitt,,  43.463623, -80.509815,,,0,,1,
4,4,1092,1092,Union / Weber,,  43.465181, -80.505469,,,0,,1,
4,4,2468,2468,Union / Ellis,,  43.466068, -80.503030,,,0,,2,
4,4,2469,2469,Union / Margaret,,  43.467091, -80.500166,,,0,,2,
4,4,2471,2471,Margaret / Breithaupt Centre,,  43.465076, -80.496437,,,0,,1,
4,4,2472,2472,Margaret / Guelph,,  43.463366, -80.494572,,,0,,1,
4,4,2838,2838,Margaret / Wilhelm,,  43.460720, -80.492802,,,0,,1,
4,4,2839,2839,Margaret / Wellington,,  43.458657, -80.490557,,,0,,1,
4,4,2840,2840,Margaret / Victoria,,  43.455966, -80.488837,,,0,,1,
4,4,2841,2841,Margaret / Centre In The Square,,  43.454547, -80.485672,,,0,,1,
4,4,2358,2358,Queen / Kitchener Central Library,,  43.453389, -80.486349,,,0,,1,
5,5,2020,2020,Lancaster / Bridgeport Rd.,,  43.477445, -80.484309,,,0,,1,
5,5,2021,2021,Lancaster / General,,  43.479285, -80.484337,,,0,,2,
5,5,2424,2424,Lancaster / Bridge,,  43.481481, -80.483115,,,0,,1,
5,5,2425,2425,Bridge / Tyson,,  43.481212, -80.480302,,,0,,2,
5,5,2426,2426,Bridge / Bloomingdale,,  43.480464, -80.478293,,,0,,1,
5,5,2427,2427,Bridge / Schweitzer,,  43.478960, -80.474200,,,0,,1,
5,5,2428,2428,Bridge / Tagge,,  43.478130, -80.471883,,,0,,1,
5,5,2429,2429,Stanley / Schueller,,  43.477700, -80.466582,,,0,,1,
5,5,2430,2430,Stanley / Tagge,,  43.479300, -80.467965,,,0,,1,
5,5,2431,2431,Stanley / Schweitzer,,  43.480971, -80.469039,,,0,,2,
5,5,2432,2432,Schweitzer / Nelson,,  43.481575, -80.467327,,,0,,2,
5,5,2433,2433,Schweitzer / Daniel,,  43.482739, -80.463892,,,0,,2,
5,5,2434,2434,Daniel / Bloomingdale,,  43.485294, -80.465390,,,0,,1,
5,5,4064,4064,Portsmouth / Westvale,,  43.440563, -80.554211,,,0,,2,
5,5,4066,4066,Westvale / Bridgewater,,  43.442163, -80.558498,,,0,,2,
5,5,4068,4068,Westvale / Thorndale,,  43.444085, -80.559564,,,0,,2,
5,5,4069,4069,Westvale / Edenvalley,,  43.446075, -80.560096,,,0,,2,
5,5,4070,4070,Westvale / Heather Hill,,  43.448419, -80.558224,,,0,,2,
5,5,1984,1984,Erb / Gateview,,  43.450843, -80.557835,,,0,,2,
5,5,1995,1995,Erb / Roosevelt,,  43.453852, -80.549332,,,0,,1,
5,5,1996,1996,Erb / Culpepper,,  43.454547, -80.547325,,,0,,1,
5,5,1998,1998,Erb / Mcdougall,,  43.456560, -80.541871,,,0,,1,
5,5,1999,1999,Erb / Westmount,,  43.459491, -80.536286,,,0,,1,
5,5,2000,2000,Erb / Dietz,,  43.460695, -80.533607,,,0,,2,
5,5,2001,2001,Erb / Roslin,,  43.461489, -80.531734,,,0,,1,
5,5,2002,2002,Erb / Avondale,,  43.462488, -80.529452,,,0,,1,
5,5,2003,2003,Erb / Euclid,,  43.463202, -80.527790,,,0,,1,
5,5,2004,2004,Erb / Father David Bauer,,  43.463921, -80.526103,,,0,,1,
5,5,2006,2006,Erb / Hughes,,  43.465207, -80.521816,,,0,,1,
5,5,2007,2007,Erb / Willow,,  43.465737, -80.518128,,,0,,1,
5,5,2009,2009,Erb / Devitt,,  43.467345, -80.514030,,,0,,2,
5,5,2010,2010,Erb / Weber,,  43.468658, -80.510439,,,0,,1,
5,5,2011,2011,Erb / Ellis,,  43.470035, -80.506323,,,0,,2,
5,5,2012,2012,Erb / Cardinal,,  43.470766, -80.502448,,,0,,1,
5,5,2013,2013,Erb / Terrystone,,  43.471679, -80.499176,,,0,,1,
5,5,2014,2014,Bridgeport Rd. / Leander,,  43.474941, -80.489542,,,0,,2,
5,5,2015,2015,Bridgeport Rd. / Mackie,,  43.475302, -80.487598,,,0,,2,
5,5,2435,2435,Bloomingdale / Nelson,,  43.484166, -80.468863,,,0,,1,
5,5,2436,2436,Bloomingdale / Stanley,,  43.483322, -80.471133,,,0,,1,
5,5,2437,2437,Bloomingdale / Prince,,  43.481855, -80.475301,,,0,,1,
5,5,2438,2438,Bloomingdale / Horning,,  43.481109, -80.477508,,,0,,2,
5,5,2439,2439,Bridge / Tyson,,  43.481119, -80.479759,,,0,,1,
5,5,1943,1943,Lancaster / Bridge,,  43.481842, -80.483033,,,0,,1,
5,5,1944,1944,Lancaster / General,,  43.479286, -80.484535,,,0,,1,
5,5,1945,1945,Lancaster / Lang,,  43.478070, -80.484508,,,0,,2,
5,5,1946,1946,Bridgeport Rd. / Lancaster,,  43.476515, -80.485127,,,0,,1,
5,5,1947,1947,Bridgeport Rd. / Mackie,,  43.475553, -80.487336,,,0,,1,
5,5,1948,1948,Bridgeport Rd. / Lang,,  43.474954, -80.490284,,,0,,1,
5,5,1949,1949,Bridgeport Rd. / Goldbeck,,  43.472569, -80.498724,,,0,,1,
5,5,1950,1950,Bridgeport Rd. / Bluevale,,  43.472516, -80.501160,,,0,,1,
5,5,1951,1951,Bridgeport Rd. / Margaret,,  43.472360, -80.504598,,,0,,2,
5,5,1952,1952,Bridgeport Rd. / Ellis,,  43.471646, -80.508029,,,0,,2,
5,5,1954,1954,Bridgeport Rd. / Weber,,  43.469842, -80.513656,,,0,,1,
5,5,1955,1955,Bridgeport Rd. / Devitt,,  43.469173, -80.515244,,,0,,1,
5,5,1956,1956,Bridgeport Rd. / Peppler,,  43.468123, -80.520260,,,0,,2,
5,5,1957,1957,King / Bridgeport Rd.,,  43.467340, -80.523085,,,0,,1,
5,5,4015,4015,Waterloo Public Square Station,,  43.463949, -80.522188,,https://www.grt.ca/en/schedules-maps/platform-layouts-ION-connections.aspx,0,,1,
5,5,1959,1959,King / William,,  43.461690, -80.521534,,,0,,1,
5,5,1960,1960,Willis Way Station,,  43.462156, -80.523196,,https://www.grt.ca/en/schedules-maps/platform-layouts-ION-connections.aspx,0,,1,
5,5,1961,1961,Erb / Father David Bauer,,  43.464140, -80.526003,,,0,,1,
5,5,1962,1962,Erb / Wells,,  43.463221, -80.528136,,,0,,1,
5,5,1963,1963,Erb / Avondale,,  43.462267, -80.530331,,,0,,1,
5,5,1964,1964,Erb / Roslin,,  43.461473, -80.532198,,,0,,1,
5,5,1965,1965,Erb / Dietz,,  43.460180, -80.535156,,,0,,1,
5,5,1967,1967,Erb / Mcdougall,,  43.457455, -80.540504,,,0,,1,
5,5,1968,1968,Erb / Mulberry,,  43.456517, -80.542366,,,0,,1,
5,5,1970,1970,Erb / Culpepper,,  43.454638, -80.547546,,,0,,1,
5,5,1971,1971,Erb / Churchill,,  43.453382, -80.551140,,,0,,1,
5,5,4071,4071,Erb / Beechwood,,  43.451599, -80.556313,,,0,,2,
5,5,1985,1985,Gateview / Westvale,,  43.450058, -80.557616,,,0,,2,
5,5,1986,1986,Westvale / Heather Hill,,  43.448501, -80.558370,,,0,,2,
5,5,1988,1988,Westvale / Edenvalley,,  43.445871, -80.560155,,,0,,2,
5,5,4067,4067,Westvale / Thorndale,,  43.443626, -80.559857,,,0,,2,
5,5,4065,4065,Westvale / Cardiff,,  43.441659, -80.558032,,,0,,2,
5,5,4063,4063,Portsmouth / Springfield,,  43.440140, -80.554168,,,0,,1,
5,5,2545,2545,Hollinger / Howard,,  43.479201, -80.462848,,,0,,2,
5,5,2546,2546,Hollinger / Path To Daniel,,  43.480573, -80.461926,,,0,,2,
5,5,2547,2547,Hollinger / Bridge,,  43.478936, -80.460041,,,0,,2,
50,50,1517,1517,Ainslie Terminal,,  43.357589, -80.312763,,https://www.grt.ca/en/schedules-maps/platform-layouts-ION-connections.aspx,0,place_AST,1,
50,50,1523,1523,Ainslie / Walnut,,  43.354946, -80.314079,,,0,,1,
50,50,4193,4193,Ainslie / Elliott,,  43.353002, -80.313269,,,0,,2,
50,50,4195,4195,Ainslie / Birch,,  43.351013, -80.313772,,,0,,2,
50,50,4213,4213,Water / Cambridge To Paris Trail,,  43.344887, -80.314979,,,0,,2,
50,50,4214,4214,Water / Churchill Park,,  43.343083, -80.314238,,,0,,2,
50,50,4196,4196,Myers / Birkinshaw,,  43.339033, -80.312068,,,0,,2,
50,50,4197,4197,Myers / Edgemere,,  43.339699, -80.308189,,,0,,2,
50,50,4198,4198,Myers / Enfield,,  43.340096, -80.305807,,,0,,2,
50,50,4199,4199,Myers / Christopher,,  43.341052, -80.300174,,,0,,2,
50,50,2287,2287,Myers / Monsignor Doyle Catholic Secondary School,,  43.341505, -80.297708,,,0,,1,
50,50,2288,2288,Myers / Greenbrier,,  43.342236, -80.293505,,,0,,1,
50,50,2289,2289,Myers / Cheese Factory,,  43.342696, -80.290664,,,0,,1,
50,50,4111,4111,Myers / Clover,,  43.343721, -80.284433,,,0,,2,
50,50,4112,4112,Myers / Lisbon Pines,,  43.344394, -80.280334,,,0,,2,
50,50,4168,4168,Lisbon Pines / Madeira,,  43.346626, -80.280709,,,0,,2,
50,50,4169,4169,Champlain / Dundas,,  43.350268, -80.280504,,,0,,2,
50,50,4114,4114,Wesley / Faith,,  43.350973, -80.271672,,,0,,1,
50,50,4115,4115,Wesley / Fitzgerald,,  43.353917, -80.276441,,,0,,1,
50,50,4116,4116,Wesley / Maple Bush,,  43.355624, -80.277097,,,0,,1,
50,50,4117,4117,Maple Bush / Ferncliffe,,  43.355349, -80.281957,,,0,,2,
50,50,4118,4118,Maple Bush / Chester,,  43.354330, -80.285004,,,0,,2,
50,50,2976,2976,Dundas / Franklin,,  43.354572, -80.286960,,,0,,1,
50,50,2176,2176,Dundas / South Cambridge Centre,,  43.355760, -80.289128,,,0,,1,
50,50,2977,2977,Dundas / Main,,  43.357247, -80.291571,,,0,,2,
50,50,2978,2978,Dundas / Monroe,,  43.359391, -80.295198,,,0,,2,
50,50,2979,2979,Dundas / Elgin,,  43.361162, -80.298072,,,0,,1,
50,50,2360,2360,Dundas / Gore,,  43.363180, -80.301455,,,0,,1,
50,50,4219,4219,Dundas / Beverly,,  43.365777, -80.305653,,,0,,1,
50,50,1609,1609,Dundas / Cambridge St.,,  43.367550, -80.308738,,,0,,1,
50,50,1610,1610,Dundas / Roxboro,,  43.370598, -80.313949,,,0,,1,
50,50,1611,1611,Dundas / Jarvis,,  43.372215, -80.316532,,,0,,1,
50,50,1613,1613,Coronation / Goldie,,  43.375535, -80.321991,,,0,,2,
50,50,1614,1614,Coronation / Oliver,,  43.377884, -80.325936,,,0,,1,
50,50,1616,1616,725 Coronation Blvd.,,  43.381028, -80.331177,,,0,,1,
50,50,1617,1617,Coronation / Highland,,  43.382493, -80.333716,,,0,,1,
50,50,1618,1618,Coronation / Blue Heron,,  43.383866, -80.335985,,,0,,1,
50,50,1619,1619,Coronation / Oriole,,  43.385801, -80.338902,,,0,,1,
50,50,1620,1620,King / Concession,,  43.387919, -80.342521,,,0,,1,
50,50,1621,1621,King / Brower,,  43.388785, -80.344228,,,0,,2,
50,50,1444,1444,Bishop / Duke,,  43.390535, -80.346382,,,0,,1,
50,50,3835,3835,Bishop / Pineview,,  43.391557, -80.344100,,,0,,1,
50,50,1446,1446,Fairview / Bishop,,  43.391761, -80.341924,,,0,,2,
50,50,1447,1447,Fairview / Grand Valley,,  43.389027, -80.340917,,,0,,2,
50,50,1448,1448,Dunbar / Grand Valley,,  43.387995, -80.341607,,,0,,1,
50,50,1449,1449,Dunbar / St George,,  43.387612, -80.337586,,,0,,2,
50,50,1451,1451,Dunbar / Eastdowns,,  43.388345, -80.333553,,,0,,2,
50,50,3858,3858,Dunbar / Industrial,,  43.389289, -80.328703,,,0,,2,
50,50,1454,1454,Dunbar / Hespeler Rd.,,  43.390351, -80.324073,,,0,,1,
50,50,1065,1065,Cambridge Centre Station,,  43.392910, -80.322468,,https://www.grt.ca/en/schedules-maps/platform-layouts-ION-connections.aspx,0,place_CBC,1,
50,50,1392,1392,Dunbar / Hespeler Rd.,,  43.390432, -80.324109,,,0,,1,
50,50,1394,1394,Dunbar / Daleview,,  43.389362, -80.328924,,,0,,2,
50,50,1396,1396,Dunbar / Eastdowns,,  43.388531, -80.333069,,,0,,2,
50,50,1398,1398,Dunbar / St George,,  43.387712, -80.337708,,,0,,2,
50,50,1399,1399,Dunbar / Grand Valley,,  43.388157, -80.341630,,,0,,2,
50,50,1400,1400,Concession / Grand Valley,,  43.389522, -80.342405,,,0,,2,
50,50,1445,1445,Bishop / Pineview,,  43.391630, -80.344259,,,0,,1,
50,50,1401,1401,Bishop / Duke,,  43.390760, -80.346343,,,0,,1,
50,50,1592,1592,King / Brower,,  43.388741, -80.344451,,,0,,2,
50,50,1593,1593,King / Blue Heron,,  43.387693, -80.342351,,,0,,2,
50,50,1594,1594,Coronation / Oriole,,  43.385677, -80.339286,,,0,,1,
50,50,1595,1595,Coronation / Blue Heron,,  43.383623, -80.336136,,,0,,1,
50,50,3609,3609,Coronation / Highland,,  43.382541, -80.334320,,,0,,1,
50,50,1596,1596,720 Coronation Blvd.,,  43.380668, -80.331143,,,0,,2,
50,50,2899,2899,Coronation / Oliver,,  43.377721, -80.326175,,,0,,2,
50,50,2900,2900,Coronation / Goldie,,  43.375437, -80.322314,,,0,,2,
50,50,1601,1601,Dundas / Hopeton,,  43.370463, -80.313938,,,0,,1,
50,50,1602,1602,Dundas / Cambridge St.,,  43.367398, -80.308863,,,0,,1,
50,50,4164,4164,Dundas / Beverly,,  43.365520, -80.305640,,,0,,1,
50,50,2482,2482,Dundas / Chalmers,,  43.362955, -80.301340,,,0,,1,
50,50,2483,2483,Dundas / Elgin,,  43.360879, -80.297878,,,0,,1,
50,50,2484,2484,Dundas / Monroe,,  43.359166, -80.295074,,,0,,1,
50,50,2485,2485,Dundas / Main,,  43.357137, -80.291813,,,0,,2,
50,50,2486,2486,Dundas / Franklin,,  43.355104, -80.288418,,,0,,2,
50,50,4200,4200,Maple Bush / Dundas,,  43.353988, -80.285055,,,0,,2,
50,50,4201,4201,Maple Bush / Critcher,,  43.355054, -80.282702,,,0,,2,
50,50,4202,4202,Maple Bush / Nottinghill,,  43.355626, -80.279273,,,0,,2,
50,50,2489,2489,Wesley / Maple Bush,,  43.355417, -80.277285,,,0,,1,
50,50,2490,2490,Wesley / Fitzgerald,,  43.353818, -80.276711,,,0,,1,
50,50,4203,4203,Wesley / Faith,,  43.350741, -80.271673,,,0,,2,
50,50,2222,2222,Lisbon Pines / Champlain,,  43.349552, -80.281217,,,0,,2,
50,50,2223,2223,Lisbon Pines / Santa Maria,,  43.346461, -80.280834,,,0,,2,
50,50,2224,2224,Lisbon Pines / Myers,,  43.344863, -80.280273,,,0,,2,
50,50,2229,2229,Myers / Clover,,  43.343796, -80.284929,,,0,,2,
50,50,2230,2230,Myers / Elgin,,  43.342691, -80.291489,,,0,,1,
50,50,2231,2231,Myers / Greenbrier,,  43.342248, -80.294072,,,0,,1,
50,50,4159,4159,Myers / Monsignor Doyle Catholic Secondary School,,  43.341702, -80.297514,,,0,,2,
50,50,4160,4160,Myers / Christopher,,  43.341168, -80.300570,,,0,,2,
50,50,2280,2280,Myers / Woodland,,  43.340197, -80.306112,,,0,,2,
50,50,4206,4206,Myers / Ridgehill,,  43.339932, -80.307906,,,0,,2,
50,50,4207,4207,Myers / Water,,  43.339225, -80.312912,,,0,,2,
50,50,4215,4215,Water / Churchill Park,,  43.343261, -80.314051,,,0,,2,
50,50,4216,4216,Water / Cambridge To Paris Trail,,  43.345122, -80.314800,,,0,,2,
50,50,4217,4217,Ainslie / Birch,,  43.351089, -80.313411,,,0,,2,
50,50,4218,4218,Ainslie / Elliott,,  43.352793, -80.313033,,,0,,2,
50,50,2159,2159,Ainslie / Veterans,,  43.354477, -80.313489,,,0,,1,
51,51,3411,3411,Jamieson / Cooper,,  43.420696, -80.289913,,,0,,2,
51,51,1265,1265,Winston / Cooper,,  43.422137, -80.292848,,,0,,2,
51,51,1266,1266,Winston / Darren,,  43.421330, -80.297799,,,0,,2,
51,51,1267,1267,Winston / Path To Erindale,,  43.421770, -80.301932,,,0,,1,
51,51,1268,1268,Winston / Gunn,,  43.421380, -80.304457,,,0,,2,
51,51,1269,1269,Winston / Westbury,,  43.421747, -80.307096,,,0,,2,
51,51,1315,1315,Holiday Inn Dr. / Jacob Hespeler Secondary School,,  43.417212, -80.316635,,,0,,1,
51,51,1316,1316,200 Holiday Inn Dr.,,  43.416512, -80.321546,,,0,,1,
51,51,1317,1317,Holiday Inn Dr. / Heritage College,,  43.417519, -80.324278,,,0,,1,
51,51,1278,1278,Groh / Holiday Inn Dr.,,  43.419123, -80.326125,,,0,,1,
51,51,1456,1456,Smartcentres Cambridge - North,,  43.411707, -80.323626,,,0,,1,
51,51,1457,1457,Smartcentres Cambridge - South,,  43.410253, -80.322913,,,0,,1,
51,51,6023,6023,Pinebush Station,,  43.407212, -80.328047,,https://www.grt.ca/en/schedules-maps/platform-layouts-ION-connections.aspx,0,,1,
51,51,1459,1459,588 Hespeler Rd.,,  43.404410, -80.327114,,,0,,1,
51,51,1486,1486,580 Hespeler Rd.,,  43.403220, -80.326738,,,0,,1,
51,51,1426,1426,Hespeler Rd. / Langs,,  43.401051, -80.326030,,,0,,1,
51,51,1427,1427,480 Hespeler Rd.,,  43.397460, -80.324883,,,0,,1,
51,51,4158,4158,Hespeler Rd. / Dunbar,,  43.390853, -80.322835,,,0,,2,
51,51,3539,3539,Hespeler Rd. / Isherwood,,  43.383099, -80.320487,,,0,,1,
51,51,1460,1460,160 Hespeler Rd.,,  43.381169, -80.319966,,,0,,1,
51,51,1461,1461,Hespeler Rd. / Wilmot,,  43.379816, -80.319598,,,0,,1,
51,51,1462,1462,Hespeler Rd. / Jaffray,,  43.377247, -80.319022,,,0,,1,
51,51,1464,1464,Water / Galt Collegiate Institute,,  43.369818, -80.317476,,,0,,1,
51,51,1465,1465,Ainslie / Simcoe,,  43.364811, -80.314385,,,0,,1,
51,51,1466,1466,Ainslie / Park Hill,,  43.362711, -80.314161,,,0,,1,
51,51,1467,1467,Ainslie / Dickson,,  43.359989, -80.313686,,,0,,1,
51,51,1511,1511,Ainslie Terminal,,  43.357179, -80.313533,,https://www.grt.ca/en/schedules-maps/platform-layouts-ION-connections.aspx,0,place_AST,1,
51,51,1468,1468,Ainslie / Dickson,,  43.360330, -80.313497,,,0,,1,
51,51,1469,1469,Ainslie / Colborne,,  43.361897, -80.313529,,,0,,2,
51,51,1470,1470,Ainslie / Park Hill,,  43.363692, -80.314089,,,0,,1,
51,51,1471,1471,Ainslie / Simcoe,,  43.365568, -80.314574,,,0,,1,
51,51,1472,1472,Water / Galt Collegiate Institute,,  43.368707, -80.316896,,,0,,1,
51,51,1473,1473,Water / Dayton,,  43.370647, -80.317553,,,0,,1,
51,51,1475,1475,Hespeler Rd. / Avenue,,  43.376929, -80.318544,,,0,,1,
51,51,3527,3527,Hespeler Rd. / Abbotsford,,  43.380193, -80.319396,,,0,,1,
51,51,1476,1476,167 Hespeler Rd.,,  43.381384, -80.319692,,,0,,1,
51,51,1384,1384,Hespeler Rd. / Munch,,  43.383332, -80.320225,,,0,,1,
51,51,4194,4194,Hespeler Rd. / Dunbar,,  43.390422, -80.322283,,,0,,2,
51,51,1477,1477,Hespeler Rd. / Bishop,,  43.395798, -80.323914,,,0,,1,
51,51,1478,1478,499 Hespeler Rd.,,  43.398577, -80.324809,,,0,,1,
51,51,1479,1479,Hespeler Rd. / Sheldon,,  43.401280, -80.325705,,,0,,1,
51,51,1480,1480,561 Hespeler Rd.,,  43.402910, -80.326232,,,0,,1,
51,51,1409,1409,605 Hespeler Rd.,,  43.404544, -80.326730,,,0,,1,
51,51,1482,1482,Smartcentres Cambridge - South,,  43.410387, -80.322751,,,0,,1,
51,51,1483,1483,Smartcentres Cambridge - North,,  43.411686, -80.324676,,,0,,1,
51,51,1276,1276,Groh / Holiday Inn Dr.,,  43.419276, -80.325685,,,0,,1,
51,51,1294,1294,Holiday Inn Dr. / Tri-City Centre,,  43.417375, -80.324304,,,0,,1,
51,51,1295,1295,200 Holiday Inn Dr.,,  43.416403, -80.321412,,,0,,1,
51,51,1297,1297,Holiday Inn Dr. / Jacob Hespeler Secondary School,,  43.417331, -80.315482,,,0,,1,
51,51,1298,1298,Holiday Inn Dr. / Franklin,,  43.417991, -80.311425,,,0,,1,
51,51,3922,3922,Winston / Gunn,,  43.421230, -80.304965,,,0,,2,
51,51,3923,3923,Winston / Path To Erindale,,  43.421634, -80.301786,,,0,,2,
51,51,3924,3924,Winston / Handorf,,  43.421222, -80.297788,,,0,,2,
51,51,3925,3925,Winston / Cooper,,  43.422129, -80.292425,,,0,,1,
51,51,3926,3926,Cooper / Hespeler Optimist Park,,  43.425898, -80.293867,,,0,,2,
51,51,1247,1247,Cooper / Ellis,,  43.427858, -80.297761,,,0,,1,
51,51,1248,1248,Cooper / Ontario,,  43.430500, -80.301251,,,0,,1,
51,51,1249,1249,Cooper / Lewis,,  43.431806, -80.305820,,,0,,1,
51,51,1029,1029,Cooper / Queen,,  43.432347, -80.308227,,,0,,1,
51,51,1237,1237,Queen / Hungerford,,  43.433445, -80.307358,,,0,,1,
51,51,1238,1238,Queen / Panabaker,,  43.435824, -80.304637,,,0,,2,
51,51,1239,1239,Melran / River,,  43.439667, -80.300912,,,0,,2,
51,51,1240,1240,Melran / Mccormick,,  43.438706, -80.298920,,,0,,2,
51,51,1241,1241,Melran / Alderson,,  43.440108, -80.295518,,,0,,1,
51,51,1242,1242,Mcmeeken / Werstine,,  43.438118, -80.294034,,,0,,2,
51,51,1243,1243,Mcmeeken / Mccormick,,  43.436945, -80.293689,,,0,,2,
51,51,3542,3542,Kerwood / Housler,,  43.432589, -80.293925,,,0,,1,
51,51,1244,1244,Kerwood / Gees,,  43.430945, -80.293129,,,0,,2,
51,51,3512,3512,Ellis / Adler,,  43.429120, -80.288115,,,0,,1,
51,51,3930,3930,Jamieson / Townline,,  43.424965, -80.285724,,,0,,2,
51,51,3931,3931,Jamieson / Lardner,,  43.423534, -80.287297,,,0,,2,
51,51,3932,3932,Jamieson / Patton,,  43.421795, -80.288578,,,0,,2,
51,51,1254,1254,Queen / Shepherd,,  43.423254, -80.324238,,,0,,1,
51,51,1235,1235,Queen / Rooshill,,  43.424275, -80.323214,,,0,,2,
51,51,3511,3511,Queen / Winston,,  43.427650, -80.318519,,,0,,1,
51,51,1236,1236,Queen / Harvey,,  43.429882, -80.313786,,,0,,1,
51,51,3540,3540,Queen / Adam,,  43.430656, -80.312050,,,0,,1,
51,51,1301,1301,Fisher Mills / Fearnwood,,  43.436430, -80.314839,,,0,,2,
51,51,1302,1302,Scott / Fisher Mills,,  43.435750, -80.320428,,,0,,1,
51,51,1303,1303,Scott / Nickolas,,  43.437525, -80.321077,,,0,,2,
51,51,1304,1304,Scott / Milton,,  43.439060, -80.320244,,,0,,2,
51,51,1305,1305,Poplar / Scott,,  43.441421, -80.317425,,,0,,1,
51,51,1306,1306,Poplar / Dawn,,  43.445420, -80.316206,,,0,,1,
51,51,1246,1246,Black Bridge / Michigan,,  43.449692, -80.309947,,,0,,1,
51,51,3852,3852,Baldwin / Osgoode,,  43.449205, -80.307710,,,0,,1,
51,51,3853,3853,Baldwin / Horton,,  43.447608, -80.307184,,,0,,1,
51,51,3854,3854,Baldwin / Henwood,,  43.445632, -80.306564,,,0,,1,
51,51,3855,3855,Baldwin / Silverthorne,,  43.441684, -80.307277,,,0,,1,
51,51,3856,3856,Baldwin / Guelph,,  43.441755, -80.313034,,,0,,1,
51,51,3541,3541,Guelph / Milton,,  43.439688, -80.313103,,,0,,1,
51,51,1307,1307,Guelph / Fisher Mills,,  43.436959, -80.312174,,,0,,1,
51,51,1250,1250,Queen / Guelph,,  43.431191, -80.311251,,,0,,1,
51,51,1251,1251,Queen / Harvey,,  43.429306, -80.315300,,,0,,1,
51,51,1252,1252,Queen / Winston,,  43.427553, -80.318853,,,0,,1,
51,51,1274,1274,Queen / Rooshill,,  43.424293, -80.323337,,,0,,2,
51,51,1253,1253,Queen / Shepherd,,  43.422575, -80.325160,,,0,,2,
53,53,1518,1518,Ainslie Terminal,,  43.357409, -80.312827,,https://www.grt.ca/en/schedules-maps/platform-layouts-ION-connections.aspx,0,place_AST,1,
53,53,1524,1524,Concession / Cameron,,  43.354744, -80.307316,,,0,,1,
53,53,1525,1525,Concession / Peck,,  43.355302, -80.303916,,,0,,1,
53,53,2269,2269,Christopher / Elliott,,  43.354142, -80.302757,,,0,,2,
53,53,2270,2270,Christopher / South,,  43.352075, -80.301967,,,0,,2,
53,53,4122,4122,Christopher / Ballantyne,,  43.350584, -80.301409,,,0,,2,
53,53,4123,4123,Christopher / Foster,,  43.348111, -80.300389,,,0,,2,
53,53,4124,4124,Champlain / Christopher,,  43.346364, -80.299078,,,0,,2,
53,53,4125,4125,Christopher / Chalmers,,  43.347165, -80.295683,,,0,,2,
53,53,4126,4126,Champlain / Elgin,,  43.347808, -80.292544,,,0,,2,
53,53,4127,4127,Champlain / Franklin,,  43.348369, -80.289610,,,0,,2,
53,53,4128,4128,Franklin / Morning Calm,,  43.351557, -80.289351,,,0,,2,
53,53,4129,4129,Franklin / Dundas,,  43.354288, -80.287620,,,0,,2,
53,53,1031,1031,Franklin / Green Gate,,  43.356373, -80.285891,,,0,,1,
53,53,4130,4130,Franklin / Main,,  43.359192, -80.286919,,,0,,2,
53,53,1529,1529,Franklin / Mclaren,,  43.361720, -80.290321,,,0,,1,
53,53,1530,1530,Franklin / Savage,,  43.364970, -80.291772,,,0,,1,
53,53,4131,4131,501 Franklin Blvd.,,  43.367776, -80.292785,,,0,,2,
53,53,1538,1538,Franklin / Clyde,,  43.371681, -80.295453,,,0,,2,
53,53,2652,2652,Franklin / Timber Creek,,  43.373733, -80.296424,,,0,,1,
53,53,1539,1539,Franklin / Hilborn,,  43.375737, -80.297153,,,0,,2,
53,53,1540,1540,Franklin / Avenue,,  43.379170, -80.298393,,,0,,1,
53,53,1541,1541,Franklin / Robson,,  43.385250, -80.300808,,,0,,2,
53,53,4145,4145,Franklin / Saginaw,,  43.391255, -80.301936,,,0,,2,
53,53,1543,1543,Franklin / Lindsay,,  43.396343, -80.303657,,,0,,1,
53,53,1351,1351,Bishop / Franklin,,  43.398271, -80.305268,,,0,,1,
53,53,1353,1353,Bishop / Cowansview,,  43.397514, -80.309357,,,0,,1,
53,53,4146,4146,Bishop / Conestoga,,  43.396039, -80.318026,,,0,,1,
53,53,1320,1320,Bishop / Collier Macmillan,,  43.395942, -80.320850,,,0,,1,
53,53,1066,1066,Cambridge Centre Station,,  43.392967, -80.322825,,https://www.grt.ca/en/schedules-maps/platform-layouts-ION-connections.aspx,0,place_CBC,1,
53,53,4147,4147,Bishop / Hespeler Rd.,,  43.395349, -80.323304,,,0,,2,
53,53,1275,1275,Bishop / Conestoga,,  43.395934, -80.317532,,,0,,1,
53,53,1328,1328,Bishop / Cowansview,,  43.397366, -80.309172,,,0,,2,
53,53,1311,1311,Bishop / Franklin,,  43.398093, -80.305139,,,0,,1,
53,53,1011,1011,Franklin / Lindsay,,  43.396313, -80.303914,,,0,,1,
53,53,4176,4176,Franklin / Can-Amera,,  43.393079, -80.302917,,,0,,2,
53,53,1491,1491,Franklin / Elgin,,  43.391201, -80.302197,,,0,,2,
53,53,1492,1492,Franklin / Glamis,,  43.385594, -80.301199,,,0,,1,
53,53,1493,1493,Franklin / Path To The Greenway,,  43.383283, -80.300263,,,0,,1,
53,53,1494,1494,Franklin / Avenue,,  43.380070, -80.299004,,,0,,1,
53,53,1495,1495,Franklin / Athlone,,  43.375259, -80.297096,,,0,,1,
53,53,2655,2655,Franklin / Millcreek,,  43.373674, -80.296589,,,0,,1,
53,53,2113,2113,Franklin / Clyde,,  43.370753, -80.295167,,,0,,2,
53,53,2114,2114,470 Franklin Blvd.,,  43.367688, -80.293024,,,0,,1,
53,53,1503,1503,Franklin / Hilltop,,  43.364755, -80.291898,,,0,,1,
53,53,1504,1504,Franklin / Mclaren,,  43.361255, -80.290252,,,0,,1,
53,53,4132,4132,Franklin / Main,,  43.359377, -80.287452,,,0,,2,
53,53,2174,2174,Franklin / Green Gate,,  43.356886, -80.286264,,,0,,1,
53,53,2175,2175,Franklin / Dundas,,  43.355066, -80.287134,,,0,,1,
53,53,2218,2218,Franklin / Path To Elliott,,  43.353525, -80.288845,,,0,,2,
53,53,2219,2219,Franklin / Morning Calm,,  43.351495, -80.289622,,,0,,2,
53,53,2293,2293,Champlain / Franklin,,  43.348504, -80.289434,,,0,,1,
53,53,2294,2294,Champlain / Elgin,,  43.348061, -80.291944,,,0,,1,
53,53,2181,2181,Champlain / Brierdale,,  43.347047, -80.296990,,,0,,1,
53,53,2182,2182,Champlain / Christopher,,  43.346556, -80.299007,,,0,,1,
53,53,2183,2183,Christopher / Foster,,  43.348455, -80.300429,,,0,,2,
53,53,2184,2184,Christopher / Ballantyne,,  43.350432, -80.301208,,,0,,2,
53,53,4133,4133,Christopher / South,,  43.352177, -80.301847,,,0,,2,
53,53,2185,2185,Christopher / Elliott,,  43.353961, -80.302624,,,0,,2,
53,53,1509,1509,Concession / Peck,,  43.355384, -80.304100,,,0,,1,
53,53,1510,1510,Concession / Cameron,,  43.354871, -80.307130,,,0,,1,
53,53,1531,1531,55 Savage Dr.,,  43.365943, -80.288947,,,0,,1,
53,53,1532,1532,111 Savage Dr.,,  43.366590, -80.285755,,,0,,2,
53,53,1533,1533,Dobbie / Savage,,  43.367997, -80.283295,,,0,,2,
53,53,1534,1534,Dobbie / Orion,,  43.369703, -80.283978,,,0,,2,
53,53,1535,1535,Dobbie / Clyde,,  43.373214, -80.285344,,,0,,2,
53,53,1536,1536,Clyde / Grand River Conservation Authority,,  43.373419, -80.286391,,,0,,2,
53,53,1537,1537,Clyde / Bluerock,,  43.372572, -80.290684,,,0,,2,
53,53,1245,1245,Clyde / Franklin,,  43.371726, -80.293368,,,0,,1,
53,53,1496,1496,Clyde / Franklin,,  43.371617, -80.293277,,,0,,1,
53,53,1497,1497,Clyde / Bluerock,,  43.372542, -80.290215,,,0,,1,
53,53,1498,1498,Clyde / Grand River Conservation Authority,,  43.373144, -80.287085,,,0,,1,
53,53,1499,1499,Dobbie / Clyde,,  43.372854, -80.285299,,,0,,1,
53,53,1500,1500,Dobbie / Orion,,  43.370227, -80.284281,,,0,,1,
53,53,1501,1501,Dobbie / Savage,,  43.367808, -80.283359,,,0,,1,
53,53,1502,1502,100 Savage Dr.,,  43.366557, -80.286286,,,0,,2,
55,55,2390,2390,Grand Ridge / Cedar,,  43.348827, -80.341534,,,0,,2,
55,55,2391,2391,Grand Ridge / Harwood,,  43.346253, -80.339623,,,0,,2,
55,55,2392,2392,Grand Ridge / Wedgewood,,  43.342965, -80.337845,,,0,,2,
55,55,2254,2254,Grand Ridge / Mark,,  43.341562, -80.335965,,,0,,2,
55,55,2255,2255,Grand Ridge / St Andrews,,  43.340742, -80.334148,,,0,,2,
55,55,2256,2256,Grand Ridge / Stirling Macgregor,,  43.338894, -80.332416,,,0,,2,
55,55,2257,2257,Grand Ridge / Oak Hill,,  43.336480, -80.330740,,,0,,2,
55,55,2641,2641,Grand Ridge / West River,,  43.337530, -80.321567,,,0,,2,
55,55,2642,2642,West River / Culham,,  43.341319, -80.321422,,,0,,2,
55,55,2643,2643,Glenmorris / Third,,  43.344772, -80.321545,,,0,,2,
55,55,2644,2644,Glenmorris / First,,  43.346405, -80.321663,,,0,,1,
55,55,2155,2155,First / Caen,,  43.346825, -80.319707,,,0,,2,
55,55,2156,2156,Middleton / Francis,,  43.348589, -80.318059,,,0,,2,
55,55,2157,2157,Crombie / Grand,,  43.350923, -80.316848,,,0,,1,
55,55,1520,1520,Ainslie Terminal,,  43.357131, -80.313089,,https://www.grt.ca/en/schedules-maps/platform-layouts-ION-connections.aspx,0,place_AST,1,
55,55,2186,2186,Main / Water,,  43.359043, -80.315079,,,0,,2,
55,55,2245,2245,Grand / South Square,,  43.358509, -80.317627,,,0,,1,
55,55,2246,2246,Grand / St Andrews,,  43.356623, -80.317605,,,0,,2,
55,55,3261,3261,St Andrews / Churchill,,  43.354882, -80.321614,,,0,,1,
55,55,3262,3262,Churchill / Barrie,,  43.354806, -80.325097,,,0,,2,
55,55,3263,3263,Churchill / Berkley,,  43.354811, -80.327374,,,0,,2,
55,55,2139,2139,Hillcrest / Churchill,,  43.354039, -80.332263,,,0,,1,
55,55,2140,2140,Hillcrest / Highland,,  43.356114, -80.332943,,,0,,2,
55,55,2141,2141,Salisbury / Southgate,,  43.356550, -80.336604,,,0,,2,
55,55,2142,2142,Salisbury / Murray,,  43.356789, -80.339118,,,0,,2,
55,55,2143,2143,Kent / Salisbury,,  43.355229, -80.341751,,,0,,2,
55,55,2144,2144,Kent / Hardcastle,,  43.353405, -80.340969,,,0,,2,
55,55,2145,2145,Kent / Sim,,  43.352288, -80.340919,,,0,,2,
55,55,2146,2146,Kent / Cedar,,  43.349885, -80.339490,,,0,,2,
55,55,2127,2127,Crombie / Grand,,  43.350934, -80.317181,,,0,,1,
55,55,2128,2128,Middleton / Francis,,  43.348256, -80.318100,,,0,,1,
55,55,2129,2129,First / Caen,,  43.346897, -80.319781,,,0,,2,
55,55,2321,2321,Glenmorris / Second,,  43.345896, -80.321766,,,0,,1,
55,55,2322,2322,Glenmorris / Third,,  43.344765, -80.321709,,,0,,1,
55,55,2323,2323,West River / Culham,,  43.341589, -80.321579,,,0,,1,
55,55,2324,2324,Grand Ridge / West River,,  43.337593, -80.321894,,,0,,1,
55,55,2325,2325,Grand Ridge / Inverness,,  43.336759, -80.329693,,,0,,2,
55,55,2326,2326,Grand Ridge / Stirling Macgregor,,  43.338750, -80.332228,,,0,,2,
55,55,2374,2374,Grand Ridge / St Andrews,,  43.340696, -80.333686,,,0,,2,
55,55,2375,2375,Grand Ridge / Byton,,  43.341805, -80.336151,,,0,,2,
55,55,2376,2376,Grand Ridge / Wedgewood,,  43.343094, -80.337731,,,0,,2,
55,55,2377,2377,Grand Ridge / White Oak,,  43.346505, -80.339548,,,0,,2,
55,55,2378,2378,Grand Ridge / Cedar,,  43.348969, -80.341321,,,0,,2,
55,55,3077,3077,Kent / Sim,,  43.352680, -80.340893,,,0,,2,
55,55,3078,3078,Kent / Hillsboro,,  43.353999, -80.341048,,,0,,2,
55,55,3079,3079,Kent / Salisbury,,  43.355456, -80.341619,,,0,,2,
55,55,3080,3080,Salisbury / Murray,,  43.356616, -80.339346,,,0,,2,
55,55,3081,3081,Salisbury / Southgate,,  43.356455, -80.336805,,,0,,2,
55,55,3082,3082,Salisbury / Hillcrest,,  43.356893, -80.333686,,,0,,2,
55,55,2206,2206,Hillcrest / Churchill,,  43.353760, -80.332303,,,0,,2,
55,55,2207,2207,Churchill / Westgate,,  43.353894, -80.330524,,,0,,1,
55,55,2208,2208,Churchill / Forest,,  43.354727, -80.326702,,,0,,1,
55,55,2209,2209,Churchill / Barrie,,  43.354719, -80.325345,,,0,,1,
55,55,2210,2210,Churchill / Lansdowne,,  43.354719, -80.321943,,,0,,1,
55,55,2211,2211,St Andrews / Grand,,  43.356512, -80.317909,,,0,,1,
55,55,2268,2268,Grand / Queens Square,,  43.358598, -80.317503,,,0,,1,
55,55,2212,2212,Main / Mill,,  43.358825, -80.313280,,,0,,2,
56,56,4161,4161,Langs / Hespeler Rd.,,  43.401609, -80.326817,,,0,,2,
56,56,1429,1429,Langs / Industrial,,  43.400426, -80.331593,,,0,,1,
56,56,1430,1430,Langs / Trico,,  43.399642, -80.336097,,,0,,1,
56,56,3280,3280,Langs / Shannon,,  43.399220, -80.338299,,,0,,1,
56,56,1431,1431,Langs / Walter,,  43.398856, -80.340267,,,0,,1,
56,56,1432,1432,515 Langs Dr.,,  43.398437, -80.342642,,,0,,1,
56,56,1433,1433,Concession / Winterhalt,,  43.398706, -80.345467,,,0,,2,
56,56,3519,3519,Concession / Trico,,  43.402377, -80.346576,,,0,,1,
56,56,1282,1282,Eagle / Whitley,,  43.404673, -80.348206,,,0,,1,
56,56,1283,1283,Eagle / Shettleston,,  43.404099, -80.351708,,,0,,1,
56,56,1284,1284,Eagle / Laurel,,  43.403585, -80.354825,,,0,,1,
56,56,4121,4121,Laurel / North,,  43.401225, -80.354985,,,0,,2,
56,56,4153,4153,Laurel / Westminster,,  43.399544, -80.354461,,,0,,2,
56,56,4154,4154,Westminster / Margaret,,  43.398565, -80.355808,,,0,,2,
56,56,4155,4155,Westminster / Duke,,  43.396834, -80.357526,,,0,,1,
56,56,4156,4156,Westminster / King,,  43.396043, -80.358268,,,0,,1,
56,56,1588,1588,King / Lowther,,  43.394187, -80.355295,,,0,,1,
56,56,1443,1443,King / Montrose,,  43.391082, -80.349241,,,0,,2,
56,56,4157,4157,Bishop / King,,  43.389470, -80.347546,,,0,,2,
56,56,1402,1402,Bishop / Hamilton,,  43.388449, -80.348442,,,0,,1,
56,56,1403,1403,Hamilton / Montrose,,  43.389580, -80.351023,,,0,,2,
56,56,1404,1404,Hamilton / Union,,  43.390618, -80.353135,,,0,,2,
56,56,1405,1405,Beck / Homuth,,  43.389028, -80.354285,,,0,,2,
56,56,1407,1407,Homuth / Frederick,,  43.388483, -80.357739,,,0,,1,
56,56,1408,1408,Rose / Lowther,,  43.389308, -80.360385,,,0,,2,
56,56,1410,1410,Rose / Preston High School,,  43.391411, -80.364474,,,0,,2,
56,56,1411,1411,Argyle / Vine,,  43.393060, -80.363111,,,0,,2,
56,56,1412,1412,Argyle / Hamilton,,  43.394637, -80.361576,,,0,,2,
56,56,1413,1413,Hamilton / Westminster,,  43.394143, -80.360247,,,0,,2,
56,56,1414,1414,Westminster / King,,  43.395655, -80.358515,,,0,,1,
56,56,1415,1415,Westminster / Duke,,  43.396596, -80.357628,,,0,,1,
56,56,1416,1416,Westminster / Lawrence,,  43.398601, -80.355656,,,0,,2,
56,56,3526,3526,Laurel / Westminster,,  43.399767, -80.354352,,,0,,2,
56,56,3522,3522,Laurel / North,,  43.401084, -80.354748,,,0,,2,
56,56,1289,1289,Eagle / Laurel,,  43.403504, -80.354726,,,0,,1,
56,56,1290,1290,Eagle / Arlington,,  43.403983, -80.351906,,,0,,2,
56,56,1417,1417,Eagle / Concession,,  43.404625, -80.347626,,,0,,1,
56,56,1418,1418,Concession / Garden,,  43.402612, -80.346821,,,0,,2,
56,56,1419,1419,Concession / Dolph,,  43.400050, -80.346021,,,0,,1,
56,56,1420,1420,Langs / Concession,,  43.398148, -80.344028,,,0,,1,
56,56,1421,1421,Langs / Walter,,  43.398635, -80.341097,,,0,,1,
56,56,1422,1422,Langs / Valentine,,  43.399114, -80.338226,,,0,,1,
56,56,1423,1423,Langs / Langs Circle,,  43.399628, -80.335208,,,0,,1,
56,56,1424,1424,Langs / Industrial,,  43.400317, -80.331322,,,0,,1,
56,56,1425,1425,Langs / Hespeler Rd.,,  43.401159, -80.327608,,,0,,1,
57,57,3525,3525,Fountain / Blair,,  43.385399, -80.391402,,,0,,2,
57,57,1685,1685,Blair / Old Mill,,  43.384014, -80.385836,,,0,,2,
57,57,1688,1688,Blair / Langdon,,  43.383313, -80.378807,,,0,,2,
57,57,2343,2343,Blair / Princess,,  43.374942, -80.340413,,,0,,1,
57,57,2342,2342,Blair / Leslie,,  43.373928, -80.336886,,,0,,1,
57,57,2341,2341,Blair / Clearview,,  43.372536, -80.333988,,,0,,1,
57,57,2340,2340,Blair / Bismark,,  43.371191, -80.332502,,,0,,2,
57,57,2197,2197,Blair / Kenmore,,  43.369507, -80.330414,,,0,,1,
57,57,2198,2198,Blair / Sherwood,,  43.367766, -80.328286,,,0,,2,
57,57,2199,2199,Blair / Grant,,  43.366732, -80.327051,,,0,,2,
57,57,2200,2200,Blair / James,,  43.363908, -80.322997,,,0,,2,
57,57,2607,2607,Blair / Park Hill,,  43.362691, -80.321520,,,0,,2,
57,57,2608,2608,George / Park Hill,,  43.362518, -80.318839,,,0,,2,
57,57,2620,2620,George / Blair,,  43.360941, -80.318792,,,0,,2,
57,57,2632,2632,George / North Square,,  43.359548, -80.318773,,,0,,1,
57,57,1522,1522,Ainslie Terminal,,  43.356972, -80.313498,,https://www.grt.ca/en/schedules-maps/platform-layouts-ION-connections.aspx,0,place_AST,1,
57,57,2187,2187,North Square / Grand,,  43.359231, -80.317841,,,0,,1,
57,57,2188,2188,George / Blair,,  43.361505, -80.318729,,,0,,1,
57,57,2189,2189,George / Hobson,,  43.363594, -80.318669,,,0,,1,
57,57,2190,2190,George / James,,  43.366578, -80.320857,,,0,,1,
57,57,2191,2191,Sunset / Saxony,,  43.368322, -80.324861,,,0,,2,
57,57,2192,2192,Sunset / Bismark,,  43.370481, -80.326133,,,0,,2,
57,57,1232,1232,Bismark / Westmount Mews,,  43.370773, -80.328328,,,0,,2,
57,57,1233,1233,Blair / Bismark,,  43.371387, -80.332519,,,0,,2,
57,57,1234,1234,Blair / Clearview,,  43.372286, -80.333514,,,0,,2,
57,57,3805,3805,Blair / Esther,,  43.373872, -80.336242,,,0,,1,
57,57,3792,3792,Blair / Princess,,  43.374874, -80.339675,,,0,,1,
57,57,1687,1687,Blair / Langdon,,  43.383480, -80.379397,,,0,,2,
57,57,1686,1686,Blair / Old Mill,,  43.384281, -80.386043,,,0,,2,
57,57,3524,3524,Fountain / Morningside,,  43.385729, -80.390868,,,0,,2,
57,57,1515,1515,Ainslie Terminal (Out Of Town Buses),,  43.357672, -80.313206,,https://www.grt.ca/en/schedules-maps/platform-layouts-ION-connections.aspx,0,place_AST,1,
58,58,1516,1516,Ainslie Terminal,,  43.357626, -80.312985,,https://www.grt.ca/en/schedules-maps/platform-layouts-ION-connections.aspx,0,place_AST,1,
58,58,1606,1606,Beverly / Kerr,,  43.361991, -80.309628,,,0,,2,
58,58,2098,2098,200 Beverly St.,,  43.368602, -80.304031,,,0,,1,
58,58,4134,4134,Beverly / Samuelson,,  43.370282, -80.302853,,,0,,2,
58,58,4135,4135,Elgin / Bronson,,  43.372706, -80.302803,,,0,,2,
58,58,4136,4136,Elgin / Galt Ave.,,  43.373941, -80.303318,,,0,,2,
58,58,4137,4137,Elgin / Winter,,  43.377048, -80.305667,,,0,,2,
58,58,4138,4138,Elgin / Avenue,,  43.379437, -80.306576,,,0,,2,
58,58,4139,4139,Elgin / Glamis,,  43.381055, -80.307082,,,0,,2,
58,58,4140,4140,Elgin / Carter,,  43.384145, -80.312104,,,0,,2,
58,58,4141,4141,Elgin / Woodborough,,  43.387618, -80.312815,,,0,,2,
58,58,4142,4142,Elgin / Acorn,,  43.389267, -80.311112,,,0,,2,
58,58,4143,4143,Elgin / Bushnell,,  43.390973, -80.308700,,,0,,2,
58,58,4144,4144,Franklin / Saginaw,,  43.392288, -80.302242,,,0,,1,
58,58,1378,1378,Elgin / Franklin,,  43.391395, -80.302960,,,0,,1,
58,58,1379,1379,Elgin / Bushnell,,  43.391123, -80.308618,,,0,,1,
58,58,1380,1380,Elgin / Steeles,,  43.388972, -80.311766,,,0,,2,
58,58,1381,1381,Elgin / Glenbrook,,  43.387280, -80.313299,,,0,,2,
58,58,4148,4148,Elgin / Munch,,  43.384401, -80.312405,,,0,,2,
58,58,1361,1361,Elgin / Path To Ferguson,,  43.382666, -80.309825,,,0,,2,
58,58,1362,1362,Elgin / Ferguson,,  43.381111, -80.307275,,,0,,1,
58,58,2108,2108,Elgin / Avenue,,  43.378458, -80.306392,,,0,,1,
58,58,2109,2109,Elgin / Winter,,  43.376770, -80.305708,,,0,,2,
58,58,2110,2110,Elgin / Galt Ave.,,  43.373947, -80.303469,,,0,,1,
58,58,2111,2111,Elgin / Bronson,,  43.372074, -80.302746,,,0,,1,
58,58,4149,4149,Elgin / Samuelson,,  43.370743, -80.302226,,,0,,2,
58,58,4150,4150,202 Beverly St.,,  43.368172, -80.304521,,,0,,2,
58,58,4152,4152,Beverly / Kerr,,  43.362239, -80.309572,,,0,,1,
6,6,2541,2541,Victoria / Duke,,  43.454225, -80.495343,,,0,,1,
6,6,5049,5049,Wellington / Weber (Temporary Stop),,  43.457140, -80.494614,,,0,,1,
6,6,2413,2413,Wellington / Ahrens,,  43.457588, -80.493285,,,0,,1,
6,6,2416,2416,Wellington / Major,,  43.460654, -80.484063,,,0,,1,
6,6,2417,2417,Lancaster / Louisa,,  43.461993, -80.483594,,,0,,1,
6,6,2418,2418,Lancaster / Hill,,  43.464382, -80.484105,,,0,,1,
6,6,2419,2419,Lancaster / Guelph,,  43.465498, -80.484083,,,0,,1,
6,6,2420,2420,Lancaster / Arnold,,  43.467849, -80.484199,,,0,,1,
6,6,2421,2421,Lancaster / Ash,,  43.469191, -80.484237,,,0,,1,
6,6,2422,2422,Lancaster / Union,,  43.471091, -80.484283,,,0,,1,
6,6,3657,3657,Lancaster / Highway 85,,  43.472104, -80.484237,,,0,,1,
6,6,2423,2423,Lancaster / Hamel,,  43.475260, -80.484347,,,0,,1,
6,6,2022,2022,Bridge / Woolwich,,  43.482797, -80.484406,,,0,,2,
6,6,2023,2023,Bridge / Bridle,,  43.485421, -80.488418,,,0,,1,
6,6,4031,4031,Bridge / Path To Auburn,,  43.488132, -80.492133,,,0,,2,
6,6,4033,4033,Bridge / University Ave.,,  43.489267, -80.493638,,,0,,1,
6,6,4034,4034,Bridge / Dansbury,,  43.496216, -80.501265,,,0,,1,
6,6,3789,3789,Bridge / Lexington,,  43.498623, -80.503938,,,0,,1,
6,6,4037,4037,Bridge / Chesapeake (South),,  43.506022, -80.511002,,,0,,2,
6,6,4028,4028,Bridge / Path To Brigantine,,  43.508040, -80.516309,,,0,,2,
6,6,4009,4009,120 Northfield Dr. E.,,  43.506950, -80.524601,,,0,,1,
6,6,2088,2088,Northfield / Wissler,,  43.505118, -80.525880,,,0,,1,
6,6,1126,1126,Conestoga Station,,  43.498297, -80.529112,,https://www.grt.ca/en/schedules-maps/platform-layouts-ION-connections.aspx,0,place_CML,1,
6,6,3495,3495,Fairway Station,,  43.421456, -80.441673,,https://www.grt.ca/en/schedules-maps/platform-layouts-ION-connections.aspx,0,place_FVM,1,4
6,6,2736,2736,Traynor / Balfour,,  43.422214, -80.449318,,,0,,1,
6,6,2737,2737,Traynor / Belwood,,  43.421327, -80.452093,,,0,,1,
6,6,2738,2738,Traynor / Vanier,,  43.420692, -80.454866,,,0,,1,
6,6,2740,2740,Vanier / Siebert,,  43.421852, -80.456764,,,0,,1,
6,6,1905,1905,Vanier / Shelley,,  43.424381, -80.459512,,,0,,2,
6,6,1906,1906,Shelley / Courtland,,  43.421701, -80.459361,,,0,,2,
6,6,2349,2349,Block Line Station,,  43.422755, -80.462430,,https://www.grt.ca/en/schedules-maps/platform-layouts-ION-connections.aspx,0,,1,
6,6,2296,2296,Courtland / Walton,,  43.427782, -80.466792,,,0,,1,
6,6,2745,2745,Courtland / Carwood,,  43.432864, -80.471758,,,0,,1,
6,6,2746,2746,Courtland / Sydney,,  43.435770, -80.475044,,,0,,1,
6,6,2749,2749,Courtland / Palmer,,  43.440020, -80.482149,,,0,,1,
6,6,2809,2809,Kraus / Conestogo,,  43.500226, -80.529493,,,0,,2,
6,6,2810,2810,Kraus / Northfield,,  43.501779, -80.530644,,,0,,2,
6,6,1920,1920,Northfield / Wissler,,  43.505216, -80.525558,,,0,,1,
6,6,4008,4008,120 Northfield Dr. E.,,  43.507169, -80.524219,,,0,,1,
6,6,4038,4038,Bridge / Chesapeake (North),,  43.508996, -80.518129,,,0,,2,
6,6,4029,4029,Bridge / Path To Wissler,,  43.507898, -80.516396,,,0,,2,
6,6,4036,4036,Bridge / Chesapeake (South),,  43.505872, -80.511147,,,0,,2,
6,6,4035,4035,Bridge / Eastbridge,,  43.503960, -80.509785,,,0,,2,
6,6,3784,3784,Bridge / Lexington,,  43.498135, -80.503571,,,0,,1,
6,6,4032,4032,Bridge / University Ave.,,  43.489045, -80.493746,,,0,,1,
6,6,4030,4030,Bridge / Bechtel Park,,  43.487948, -80.492209,,,0,,1,
6,6,1941,1941,Bridge / Bridle,,  43.485348, -80.488599,,,0,,2,
6,6,1942,1942,Bridge / Woolwich,,  43.482772, -80.484765,,,0,,2,
6,6,2440,2440,Lancaster / Hamel,,  43.475062, -80.484460,,,0,,1,
6,6,2441,2441,Lancaster / Union,,  43.471371, -80.484466,,,0,,2,
6,6,2442,2442,Lancaster / Ash,,  43.469299, -80.484385,,,0,,1,
6,6,2443,2443,Lancaster / Arnold,,  43.468057, -80.484346,,,0,,1,
6,6,2444,2444,Lancaster / Guelph,,  43.465382, -80.484307,,,0,,1,
6,6,2445,2445,Lancaster / Hill,,  43.464121, -80.484256,,,0,,1,
6,6,2446,2446,Lancaster / Louisa,,  43.462147, -80.483803,,,0,,1,
6,6,2450,2450,Wellington / Ahrens,,  43.457803, -80.492974,,,0,,2,
6,6,3744,3744,Wellington / Weber,,  43.457119, -80.495057,,,0,,2,
6,6,2539,2539,Victoria / Kitchener Rail Station,,  43.454676, -80.494492,,,0,,1,
6,6,2715,2715,Courtland / Peter,,  43.444110, -80.489418,,,0,,1,
6,6,2716,2716,Courtland / Madison,,  43.442313, -80.486307,,,0,,1,
6,6,3618,3618,Courtland / Stirling,,  43.441325, -80.484771,,,0,,1,
6,6,2718,2718,Courtland / Palmer,,  43.439837, -80.482143,,,0,,1,
6,6,2719,2719,Courtland / Kent,,  43.438756, -80.480288,,,0,,1,
6,6,2721,2721,Courtland / Grenville,,  43.437448, -80.478099,,,0,,1,
6,6,2722,2722,Courtland / Sydney,,  43.435830, -80.475278,,,0,,1,
6,6,2724,2724,Courtland / Carwood,,  43.433083, -80.472411,,,0,,1,
6,6,2725,2725,Courtland / Overland,,  43.428850, -80.468284,,,0,,1,
6,6,2115,2115,Courtland / Hayward,,  43.426701, -80.466307,,,0,,1,
6,6,2730,2730,Vanier / Vanier Park,,  43.423802, -80.459001,,,0,,1,
6,6,2731,2731,Vanier / Siebert,,  43.421709, -80.456730,,,0,,1,
6,6,2732,2732,Traynor / Vanier,,  43.420575, -80.454867,,,0,,1,
6,6,2733,2733,Traynor / Belwood,,  43.421308, -80.451883,,,0,,1,
6,6,2734,2734,Traynor / Balfour,,  43.422142, -80.449355,,,0,,1,
60,60,1058,1058,Cambridge Centre Station,,  43.392538, -80.322486,,https://www.grt.ca/en/schedules-maps/platform-layouts-ION-connections.aspx,0,place_CBC,1,
60,60,4182,4182,Dunbar / International Village,,  43.390784, -80.317808,,,0,,2,
60,60,4183,4183,Dunbar / Conestoga,,  43.391340, -80.314367,,,0,,1,
60,60,4212,4212,Can-Amera / Franklin,,  43.393678, -80.303403,,,0,,2,
60,60,4170,4170,Saginaw / St Benedict Catholic Secondary School,,  43.391480, -80.301477,,,0,,2,
60,60,4171,4171,Saginaw / Cowan,,  43.389628, -80.296985,,,0,,2,
60,60,1367,1367,Cowan / Robson,,  43.387134, -80.295391,,,0,,2,
60,60,1368,1368,Cowan / Path To Bayne,,  43.384184, -80.294487,,,0,,1,
60,60,1369,1369,Burnett / Buchanan,,  43.383333, -80.292287,,,0,,2,
60,60,1355,1355,Burnett / Benn,,  43.384794, -80.290574,,,0,,1,
60,60,1370,1370,Burnett / Drumlin,,  43.386978, -80.287451,,,0,,1,
60,60,4172,4172,Burnett / Saginaw,,  43.389574, -80.285122,,,0,,2,
60,60,4173,4173,Burnett / Glenvalley,,  43.392474, -80.286298,,,0,,2,
60,60,4174,4174,Burnett / Essex Point,,  43.396643, -80.288454,,,0,,2,
60,60,4175,4175,Burnett / Country Club,,  43.397238, -80.290889,,,0,,2,
60,60,4235,4235,Country Club / Morel,,  43.396131, -80.293446,,,0,,2,
60,60,1354,1354,Green Vista / Whittaker,,  43.394522, -80.294540,,,0,,1,
60,60,1356,1356,Saginaw / St Benedict Catholic Secondary School,,  43.391623, -80.300513,,,0,,1,
60,60,4093,4093,Can-Amera / Path To Lena,,  43.392915, -80.308979,,,0,,1,
60,60,4208,4208,Dunbar / International Village,,  43.391034, -80.318060,,,0,,2,
61,61,1063,1063,Cambridge Centre Station,,  43.392503, -80.322738,,https://www.grt.ca/en/schedules-maps/platform-layouts-ION-connections.aspx,0,place_CBC,1,
61,61,1321,1321,Bishop / Hespeler Rd.,,  43.394998, -80.325763,,,0,,1,
61,61,3850,3850,Bishop / Industrial,,  43.394310, -80.329610,,,0,,1,
61,61,1051,1051,1001 Bishop St. N.,,  43.393811, -80.332360,,,0,,1,
61,61,3878,3878,690 Bishop St. N.,,  43.393052, -80.336354,,,0,,1,
61,61,2313,2313,Bishop / Mary,,  43.392523, -80.339495,,,0,,1,
61,61,1623,1623,King / Montrose,,  43.391745, -80.350135,,,0,,2,
61,61,1625,1625,King / Lowther,,  43.394631, -80.355785,,,0,,1,
61,61,1626,1626,King / Waterloo,,  43.397462, -80.361250,,,0,,1,
61,61,1628,1628,King / Fountain,,  43.399958, -80.368015,,,0,,1,
61,61,1576,1576,200 Preston Pkwy.,,  43.399367, -80.376863,,,0,,1,
61,61,1577,1577,Preston Pkwy. / Linden,,  43.398536, -80.377983,,,0,,1,
61,61,1578,1578,Preston Pkwy. / Parkview,,  43.396454, -80.377671,,,0,,1,
61,61,1579,1579,Preston Pkwy. / Hillview,,  43.394816, -80.377750,,,0,,1,
61,61,1580,1580,Preston Pkwy. / Woods,,  43.391888, -80.377496,,,0,,1,
61,61,1630,1630,Preston Pkwy. / Fountain,,  43.390995, -80.375505,,,0,,1,
61,61,1631,1631,Preston Pkwy. / Woods,,  43.392158, -80.377394,,,0,,1,
61,61,1632,1632,Preston Pkwy. / Hillview,,  43.394671, -80.377665,,,0,,2,
61,61,1633,1633,Preston Pkwy. / Parkview,,  43.397284, -80.377947,,,0,,1,
61,61,3003,3003,Fountain / Shantz Hill,,  43.398299, -80.370481,,,0,,1,
61,61,1584,1584,King / Fountain,,  43.399825, -80.368449,,,0,,1,
61,61,1586,1586,King / Waterloo,,  43.397264, -80.361202,,,0,,1,
61,61,2327,2327,Bishop / Mary,,  43.392416, -80.339162,,,0,,1,
61,61,3877,3877,690 Bishop St. N.,,  43.392848, -80.336780,,,0,,1,
61,61,1054,1054,990 Bishop St. N.,,  43.393636, -80.332415,,,0,,1,
61,61,3851,3851,Bishop / Industrial,,  43.394340, -80.328684,,,0,,1,
61,61,3806,3806,Bishop / Hespeler Rd.,,  43.395108, -80.324430,,,0,,1,
61,61,3515,3515,Fountain / Preston Pkwy.,,  43.390582, -80.375330,,,0,,2,
61,61,3516,3516,Fountain / Linden,,  43.388399, -80.379271,,,0,,1,
61,61,3562,3562,Fountain / Linden,,  43.388378, -80.378459,,,0,,1,
63,63,1519,1519,Ainslie Terminal,,  43.357284, -80.312964,,https://www.grt.ca/en/schedules-maps/platform-layouts-ION-connections.aspx,0,place_AST,1,
63,63,4162,4162,Centre / Elliott,,  43.353050, -80.308762,,,0,,1,
63,63,4163,4163,Mckay / South,,  43.350801, -80.307486,,,0,,2,
63,63,4209,4209,Mckay / Ballantyne,,  43.349612, -80.307082,,,0,,2,
63,63,2274,2274,Mckay / Glenview,,  43.347808, -80.306507,,,0,,1,
63,63,2275,2275,Glenview / Mcdonald,,  43.347995, -80.304629,,,0,,1,
63,63,2276,2276,Mcdonald / Dorset,,  43.346411, -80.303278,,,0,,2,
63,63,4119,4119,Elgin / Champlain,,  43.348146, -80.293037,,,0,,2,
63,63,2295,2295,Elgin / Woolley,,  43.351434, -80.294361,,,0,,1,
63,63,4120,4120,Elgin / South,,  43.353168, -80.295018,,,0,,2,
63,63,2297,2297,Elgin / Elliott,,  43.354414, -80.295597,,,0,,1,
63,63,2298,2298,Elgin / Main,,  43.356445, -80.296413,,,0,,2,
63,63,4220,4220,Elgin / Monroe,,  43.358402, -80.297122,,,0,,2,
63,63,2165,2165,Elgin / Dundas,,  43.360849, -80.298127,,,0,,1,
63,63,2166,2166,Elgin / Linnwood,,  43.362023, -80.298607,,,0,,2,
63,63,4221,4221,Elgin / Hilltop,,  43.363111, -80.299001,,,0,,2,
63,63,2167,2167,Elgin / Manchester,,  43.365038, -80.299843,,,0,,2,
63,63,2168,2168,Elgin / Marion,,  43.366563, -80.300443,,,0,,2,
63,63,2169,2169,Alison / Elgin,,  43.368174, -80.300338,,,0,,2,
63,63,2170,2170,Alison / Radford,,  43.368813, -80.297196,,,0,,1,
63,63,2171,2171,Alison / Lauris,,  43.367033, -80.294797,,,0,,2,
63,63,2172,2172,Alison / Hilltop,,  43.364433, -80.293766,,,0,,2,
63,63,2173,2173,Hilltop / Franklin,,  43.364352, -80.292273,,,0,,2,
63,63,1505,1505,Main / South Cambridge Centre,,  43.357907, -80.289683,,,0,,1,
63,63,1506,1506,Main / Dundas,,  43.357330, -80.292955,,,0,,1,
63,63,1507,1507,Main / Elgin,,  43.356600, -80.296806,,,0,,2,
63,63,2301,2301,Main / Lowrey,,  43.356291, -80.300783,,,0,,1,
63,63,2302,2302,Main / Cathay,,  43.356540, -80.303112,,,0,,2,
63,63,2303,2303,Main / Arthur White,,  43.356820, -80.306231,,,0,,2,
63,63,2304,2304,Main / Spruce,,  43.357154, -80.307980,,,0,,2,
63,63,2125,2125,Main / Harris,,  43.358889, -80.310490,,,0,,1,
65,65,4186,4186,Arthur Fach / Coulthard,,  43.405478, -80.280345,,,0,,2,
65,65,4187,4187,Townline / Concession 1 Puslinch,,  43.401995, -80.275641,,,0,,2,
65,65,4188,4188,Townline / Cambridge Gurdwara,,  43.400086, -80.274810,,,0,,1,
65,65,4189,4189,Saginaw / Glenvalley,,  43.394972, -80.275505,,,0,,2,
65,65,4190,4190,Saginaw / Granite Hill,,  43.393591, -80.277909,,,0,,2,
65,65,4191,4191,680 Saginaw Pkwy.,,  43.391939, -80.280289,,,0,,2,
65,65,4192,4192,Saginaw / Light,,  43.390213, -80.283148,,,0,,2,
65,65,1371,1371,Saginaw / Burnett,,  43.389553, -80.285976,,,0,,1,
65,65,1372,1372,Saginaw / Fairgreen,,  43.389900, -80.288309,,,0,,2,
65,65,1373,1373,Saginaw / Stonecairn,,  43.390445, -80.292019,,,0,,1,
65,65,1374,1374,Saginaw / Cowan,,  43.389734, -80.296324,,,0,,2,
65,65,1318,1318,Conestoga / Lena,,  43.392685, -80.315293,,,0,,2,
65,65,1319,1319,Conestoga / Conestoga Transit Garage,,  43.394845, -80.316676,,,0,,2,
65,65,1345,1345,Saginaw / Cowan,,  43.389589, -80.296202,,,0,,2,
65,65,1346,1346,Saginaw / Stonecairn,,  43.390144, -80.292862,,,0,,2,
65,65,1347,1347,Saginaw / Chamberlin,,  43.390003, -80.288950,,,0,,2,
65,65,1348,1348,Saginaw / Burnett,,  43.389549, -80.285486,,,0,,2,
65,65,1349,1349,Saginaw / Light,,  43.390170, -80.282540,,,0,,1,
65,65,4041,4041,695 Saginaw Pkwy.,,  43.392276, -80.279698,,,0,,1,
65,65,1350,1350,Saginaw / Granite Hill,,  43.393499, -80.277747,,,0,,1,
65,65,3394,3394,Saginaw / Haddaway,,  43.394957, -80.274790,,,0,,2,
65,65,4108,4108,Townline / Cambridge Gurdwara,,  43.400433, -80.274616,,,0,,1,
65,65,3396,3396,Coulthard / Arthur Fach,,  43.405277, -80.280707,,,0,,1,
65,65,3397,3397,Coulthard / Baintree,,  43.404148, -80.284511,,,0,,2,
65,65,4184,4184,Baintree / Can-Amera,,  43.405663, -80.286031,,,0,,2,
65,65,4185,4185,Arthur Fach / Garth Massey,,  43.407328, -80.281024,,,0,,2,
67,67,3986,3986,Conestoga / Bishop,,  43.396696, -80.317507,,,0,,2,
67,67,3985,3985,505 Conestoga Blvd.,,  43.400565, -80.318477,,,0,,2,
67,67,3984,3984,Sheldon / Conestoga,,  43.402925, -80.318697,,,0,,1,
67,67,3983,3983,Sheldon / Corydon,,  43.402818, -80.314212,,,0,,2,
67,67,3982,3982,Sheldon / Wolseley,,  43.403103, -80.312310,,,0,,1,
67,67,3981,3981,180 Sheldon Dr.,,  43.404791, -80.309982,,,0,,2,
67,67,3980,3980,Sheldon / Franklin,,  43.406302, -80.305999,,,0,,1,
67,67,3979,3979,Sheldon / Balmoral,,  43.407360, -80.300072,,,0,,2,
67,67,3978,3978,Sheldon / Thompson,,  43.407986, -80.296348,,,0,,2,
67,67,3977,3977,Fleming / Sheldon,,  43.409018, -80.292988,,,0,,2,
67,67,3976,3976,Fleming / Thompson,,  43.410227, -80.293357,,,0,,2,
67,67,3975,3975,Thompson / Lingard,,  43.411102, -80.289222,,,0,,2,
67,67,3974,3974,520 Thompson Dr.,,  43.413414, -80.285754,,,0,,2,
67,67,3973,3973,Pinebush / Tyler,,  43.415297, -80.287604,,,0,,2,
67,67,3972,3972,Pinebush / Fleming,,  43.413902, -80.295019,,,0,,2,
67,67,3960,3960,330 Pinebush Rd.,,  43.413273, -80.298617,,,0,,2,
67,67,3971,3971,Pinebush / Balmoral,,  43.412629, -80.302521,,,0,,2,
67,67,3970,3970,Pinebush / Wayne,,  43.411450, -80.309773,,,0,,2,
67,67,3968,3968,Pinebush / Struck,,  43.410407, -80.315488,,,0,,2,
67,67,4179,4179,Pinebush / Hollywood,,  43.409962, -80.317946,,,0,,1,
67,67,3967,3967,Pinebush / Conestoga,,  43.409222, -80.322122,,,0,,2,
67,67,2648,2648,30 Pinebush Rd.,,  43.408816, -80.324303,,,0,,1,
67,67,3508,3508,Pinebush Station,,  43.408319, -80.327287,,,0,,1,
67,67,3509,3509,Eagle / Industrial,,  43.407294, -80.333043,,,0,,2,
67,67,3510,3510,Eagle / Providence,,  43.405890, -80.341122,,,0,,2,
67,67,1435,1435,336 Eagle St. N.,,  43.401259, -80.360654,,,0,,1,
67,67,1436,1436,Eagle / William,,  43.400078, -80.362037,,,0,,1,
67,67,3934,3934,Fountain / Marmel,,  43.403767, -80.369994,,,0,,1,
67,67,3742,3742,Fountain / Comdev Soccer Dome,,  43.409297, -80.373229,,,0,,1,
67,67,3935,3935,Cherry Blossom / Fountain,,  43.412819, -80.375107,,,0,,1,
67,67,3936,3936,Cherry Blossom / Saltsman,,  43.414214, -80.379935,,,0,,1,
67,67,3937,3937,Cherry Blossom / Barnes,,  43.415813, -80.384205,,,0,,2,
67,67,3939,3939,Maple Grove / Cherry Blossom,,  43.416540, -80.387187,,,0,,1,
67,67,2310,2310,Cherry Blossom / Barnes,,  43.415737, -80.384569,,,0,,2,
67,67,3940,3940,Cherry Blossom / Saltsman,,  43.414016, -80.379974,,,0,,2,
67,67,2312,2312,Cherry Blossom / Fountain,,  43.412639, -80.375134,,,0,,2,
67,67,3941,3941,Fountain / Comdev Soccer Dome,,  43.408694, -80.373211,,,0,,2,
67,67,3942,3942,Fountain / Marmel,,  43.403842, -80.370297,,,0,,2,
67,67,2393,2393,Eagle / King,,  43.398791, -80.363046,,,0,,1,
67,67,2789,2789,Eagle / William,,  43.400045, -80.361882,,,0,,1,
67,67,2790,2790,Eagle / Path To Westminster,,  43.401901, -80.359630,,,0,,1,
67,67,2650,2650,Eagle / Concession,,  43.404771, -80.346943,,,0,,2,
67,67,2791,2791,Eagle / Providence,,  43.405683, -80.341446,,,0,,1,
67,67,2792,2792,Eagle / Industrial,,  43.407026, -80.333550,,,0,,1,
67,67,1325,1325,Pinebush Station (West Side),,  43.407805, -80.328627,,,0,,1,
67,67,3600,3600,Pinebush Station (East Side),,  43.408059, -80.327120,,,0,,1,
67,67,2647,2647,55 Pinebush Rd.,,  43.408529, -80.324371,,,0,,2,
67,67,1326,1326,Pinebush / Conestoga,,  43.409049, -80.321564,,,0,,1,
67,67,1327,1327,Pinebush / High Ridge,,  43.409920, -80.316914,,,0,,1,
67,67,3543,3543,Pinebush / Wayne,,  43.410888, -80.311605,,,0,,1,
67,67,3514,3514,Pinebush / Franklin,,  43.411620, -80.307632,,,0,,1,
67,67,1329,1329,Pinebush / Balmoral,,  43.412689, -80.301271,,,0,,2,
67,67,1330,1330,355 Pinebush Rd.,,  43.413113, -80.298450,,,0,,2,
67,67,1331,1331,Pinebush / Fleming,,  43.413712, -80.294873,,,0,,1,
67,67,3989,3989,Pinebush / Thompson,,  43.415098, -80.287483,,,0,,1,
67,67,3988,3988,505 Thompson Dr.,,  43.413142, -80.285878,,,0,,2,
67,67,3987,3987,Thompson / Lingard,,  43.411350, -80.288527,,,0,,2,
67,67,1332,1332,Fleming / Thompson,,  43.410012, -80.293471,,,0,,2,
67,67,1333,1333,Fleming / Sheldon,,  43.408794, -80.293078,,,0,,2,
67,67,3546,3546,Sheldon / Thompson,,  43.408225, -80.295740,,,0,,2,
67,67,1335,1335,Sheldon / Balmoral,,  43.407304, -80.301135,,,0,,1,
67,67,1336,1336,Sheldon / Franklin,,  43.406200, -80.307656,,,0,,1,
67,67,3547,3547,180 Sheldon Dr.,,  43.404703, -80.310341,,,0,,2,
67,67,1337,1337,Sheldon / Wolseley,,  43.403212, -80.312408,,,0,,1,
67,67,1338,1338,Sheldon / Corydon,,  43.403151, -80.315681,,,0,,1,
67,67,1339,1339,Conestoga / Sheldon,,  43.402492, -80.319515,,,0,,2,
67,67,1340,1340,500 Conestoga Blvd.,,  43.399646, -80.318314,,,0,,2,
7,7,1882,1882,King / Ottawa,,  43.442131, -80.472073,,,0,,1,
7,7,1883,1883,King / Borden,,  43.442786, -80.473500,,,0,,1,
7,7,1884,1884,King / Stirling,,  43.444188, -80.476738,,,0,,1,
7,7,1885,1885,King / Pandora,,  43.445196, -80.478769,,,0,,1,
7,7,1886,1886,King / Cameron,,  43.446087, -80.480640,,,0,,1,
7,7,2564,2564,King / Kitchener Market,,  43.447433, -80.483594,,,0,,1,
7,7,1888,1888,Frederick Station (King / Frederick),,  43.449143, -80.487374,,https://www.grt.ca/en/schedules-maps/platform-layouts-ION-connections.aspx,0,,1,
7,7,1889,1889,King / Queen,,  43.449716, -80.488704,,,0,,1,
7,7,1890,1890,King / Ontario,,  43.450445, -80.490613,,,0,,1,
7,7,1891,1891,King / College,,  43.451513, -80.493731,,,0,,1,
7,7,1892,1892,King / Francis,,  43.452297, -80.496123,,,0,,1,
7,7,1896,1896,King / Wellington,,  43.454553, -80.503261,,,0,,1,
7,7,1897,1897,King / Agnes,,  43.455081, -80.504805,,,0,,1,
7,7,1898,1898,King / Kitchener-Waterloo Collegiate,,  43.455997, -80.507727,,,0,,1,
7,7,1909,1909,King / Bridgeport Rd.,,  43.467900, -80.523006,,,0,,1,
7,7,1910,1910,King / Elgin,,  43.470109, -80.523582,,,0,,1,
7,7,1911,1911,King / James,,  43.472479, -80.524058,,,0,,1,
7,7,1913,1913,King / University Ave.,,  43.476048, -80.524797,,,0,place_KUN,1,
7,7,1914,1914,King / Hickory,,  43.477733, -80.525167,,,0,place_KUN,1,
7,7,1915,1915,King / Columbia,,  43.481806, -80.526013,,,0,,1,
7,7,1917,1917,King / Blue Springs,,  43.487484, -80.527267,,,0,,1,
7,7,1919,1919,King / Highway 85,,  43.494403, -80.528660,,,0,,1,
7,7,1130,1130,Conestoga Station,,  43.498044, -80.528780,,https://www.grt.ca/en/schedules-maps/platform-layouts-ION-connections.aspx,0,place_CML,1,
7,7,3490,3490,Fairway Station,,  43.422522, -80.441248,,https://www.grt.ca/en/schedules-maps/platform-layouts-ION-connections.aspx,0,place_FVM,1,3
7,7,2584,2584,Greenfield / Kingsway,,  43.424725, -80.441536,,,0,,1,
7,7,2585,2585,Greenfield / Traynor,,  43.425625, -80.445210,,,0,,1,
7,7,2586,2586,Traynor / Connaught,,  43.427901, -80.444794,,,0,,1,
7,7,2587,2587,Connaught / Woodhaven,,  43.428730, -80.446713,,,0,,1,
7,7,2589,2589,Connaught / Franklin,,  43.430055, -80.450853,,,0,,1,
7,7,2590,2590,Connaught / Fourth,,  43.431061, -80.454019,,,0,,1,
7,7,2605,2605,First / Eckert,,  43.434361, -80.456893,,,0,,2,
7,7,2606,2606,Eckert / Dixon,,  43.434633, -80.459213,,,0,,2,
7,7,1878,1878,King / Montgomery,,  43.437511, -80.460250,,,0,,1,
7,7,1880,1880,King / Rockway Centre,,  43.439844, -80.466297,,,0,,1,
7,7,1881,1881,King / Sydney,,  43.441166, -80.469721,,,0,,1,
7,7,2504,2504,King / Path To Bauer,,  43.496633, -80.529434,,,0,,1,
7,7,2507,2507,King / Blue Springs,,  43.487539, -80.527464,,,0,,1,
7,7,2509,2509,King / Columbia,,  43.482339, -80.526367,,,0,,1,
7,7,2532,2532,King / Hickory,,  43.478356, -80.525520,,,0,place_KUN,1,
7,7,1165,1165,King / University Ave. (North Side),,  43.476328, -80.525079,,,0,place_KUN,1,
7,7,3581,3581,King / Ezra,,  43.472327, -80.524282,,,0,,1,
7,7,2535,2535,King / Central,,  43.469812, -80.523745,,,0,,1,
7,7,4048,4048,Waterloo Public Square Station,,  43.464398, -80.522231,,https://www.grt.ca/en/schedules-maps/platform-layouts-ION-connections.aspx,0,,1,
7,7,2540,2540,Grand River Hospital Station,,  43.457084, -80.511803,,https://www.grt.ca/en/schedules-maps/platform-layouts-ION-connections.aspx,0,,1,
7,7,2542,2542,King / Kitchener-Waterloo Collegiate,,  43.455963, -80.508276,,,0,,1,
7,7,2543,2543,King / Agnes,,  43.455027, -80.505384,,,0,,1,
7,7,2544,2544,King / Wellington,,  43.454399, -80.503212,,,0,,1,
7,7,1901,1901,Central Station,,  43.452618, -80.497627,,https://www.grt.ca/en/schedules-maps/platform-layouts-ION-connections.aspx,0,,1,
7,7,2457,2457,King / Water,,  43.451742, -80.494755,,,0,,1,
7,7,2562,2562,King / Queen,,  43.449872, -80.489395,,,0,,1,
7,7,2561,2561,Frederick Station (King / Benton),,  43.449257, -80.487980,,https://www.grt.ca/en/schedules-maps/platform-layouts-ION-connections.aspx,0,,1,
7,7,3730,3730,King / Scott,,  43.448207, -80.485491,,,0,,1,
7,7,1887,1887,King / Kitchener Market,,  43.447352, -80.483583,,,0,,1,
7,7,2565,2565,King / Cameron,,  43.446098, -80.480924,,,0,,1,
7,7,3579,3579,King / Pandora,,  43.445216, -80.479102,,,0,,1,
7,7,2567,2567,King / Stirling,,  43.444307, -80.477219,,,0,,1,
7,7,2568,2568,King / Borden,,  43.442851, -80.473920,,,0,,1,
7,7,2569,2569,King / Ottawa,,  43.441950, -80.471889,,,0,,1,
7,7,2570,2570,King / Sydney,,  43.440967, -80.469525,,,0,,1,
7,7,2571,2571,King / Rockway Centre,,  43.439764, -80.466384,,,0,,1,
7,7,2572,2572,King / Rockway Gardens,,  43.437869, -80.461854,,,0,,1,
7,7,3661,3661,Eckert / Dixon,,  43.434388, -80.458820,,,0,,1,
7,7,2573,2573,First / Eckert,,  43.434549, -80.456582,,,0,,1,
7,7,2577,2577,Connaught / Sixth,,  43.430578, -80.452812,,,0,,1,
7,7,2578,2578,Connaught / Franklin,,  43.429883, -80.450632,,,0,,1,
7,7,2580,2580,Connaught / Woodhaven,,  43.428530, -80.446382,,,0,,1,
7,7,2581,2581,Traynor / Connaught,,  43.427830, -80.444905,,,0,,1,
7,7,2582,2582,Greenfield / Traynor,,  43.425590, -80.445482,,,0,,1,
7,7,2583,2583,Greenfield / Kingsway,,  43.424526, -80.441439,,,0,,1,
72,72,2316,2316,Loblaws Distribution Centre,,  43.429067, -80.379030,,,0,,2,
72,72,5002,5002,Maple Grove / Fountain (West Side Temporary Stop),,  43.423756, -80.381082,,,0,,2,
72,72,5003,5003,Maple Grove / Fountain (East Side Temporary Stop),,  43.424654, -80.376883,,,0,,2,
72,72,3646,3646,Boxwood / Maple Grove,,  43.428134, -80.365004,,,0,,2,
72,72,3647,3647,Boxwood / Vondrau,,  43.430681, -80.370305,,,0,,2,
72,72,1169,1169,90 Vondrau Dr.,,  43.431722, -80.375542,,,0,,2,
72,72,3648,3648,Vondrau / Boxwood,,  43.429514, -80.375102,,,0,,2,
72,72,7139,7139,Toyota Cambridge Gate 1,,  43.416687, -80.374051,,,0,,1,
72,72,7137,7137,Toyota Cambridge Gate 2,,  43.419445, -80.375594,,,0,,1,
76,76,3959,3959,Doon South / Windrush,,  43.387312, -80.423558,,,0,,2,
76,76,3958,3958,Doon South / Winding Wood,,  43.384632, -80.425978,,,0,,2,
76,76,3957,3957,Doon South / Forest Edge,,  43.383034, -80.426981,,,0,,2,
76,76,3953,3953,Doon Mills / Woodsmere,,  43.382862, -80.428514,,,0,,2,
76,76,3956,3956,Doon Mills / Pine Valley,,  43.385956, -80.431448,,,0,,2,
76,76,3955,3955,Doon Mills / Apple Ridge,,  43.387209, -80.435424,,,0,,2,
76,76,3954,3954,Doon Village / Anvil,,  43.390781, -80.438551,,,0,,2,
76,76,3961,3961,Doon Village / Anvil,,  43.390710, -80.438663,,,0,,2,
76,76,3962,3962,Doon Mills / Apple Ridge,,  43.387073, -80.435224,,,0,,2,
76,76,3963,3963,Doon Mills / Pine Valley,,  43.386103, -80.431852,,,0,,2,
76,76,3999,3999,Doon Mills / Woodsmere,,  43.383052, -80.428796,,,0,,2,
76,76,3964,3964,Doon South / Forest Edge,,  43.382684, -80.427095,,,0,,2,
76,76,3965,3965,Doon South / Winding Wood,,  43.384730, -80.425792,,,0,,2,
76,76,3966,3966,Doon South / Windrush,,  43.387221, -80.423299,,,0,,2,
77,77,7033,7033,Mackays No Frills New Hamburg,,  43.370375, -80.703940,,,0,,1,
77,77,7025,7025,Peel / Bleams,,  43.373532, -80.704451,,,0,,2,
77,77,7023,7023,Peel / Boullee,,  43.376822, -80.707804,,,0,,2,
77,77,7021,7021,Huron / Union,,  43.378316, -80.711845,,,0,,1,
77,77,7019,7019,Waterloo St. / Huron,,  43.377820, -80.713877,,,0,,2,
77,77,7017,7017,Waterloo St. / Wilmot Family Resource Centre,,  43.381586, -80.714469,,,0,,2,
77,77,7035,7035,Waterloo St. / Victoria,,  43.387806, -80.710972,,,0,,2,
77,77,7010,7010,Waterloo St. / Christner,,  43.397179, -80.704314,,,0,,2,
77,77,7008,7008,Waterloo-Oxford District Secondary School,,  43.401243, -80.687381,,,0,,2,
77,77,7007,7007,Snyders / Foundry,,  43.403619, -80.669203,,,0,,2,
77,77,5039,5039,Louisa / Brewery (Temporary Stop),,  43.401692, -80.662609,,,0,,2,
77,77,5040,5040,Schneller / Elizabeth (Temporary Stop),,  43.403570, -80.654854,,,0,,2,
77,77,5041,5041,Stiefelmeyer / Sandhills (Temporary Stop),,  43.405916, -80.650085,,,0,,2,
77,77,7039,7039,560 Snyders Rd. E.,,  43.407145, -80.645919,,,0,,2,
77,77,7001,7001,Snyders / Notre Dame,,  43.413350, -80.605699,,,0,,1,
77,77,7040,7040,Highland / Trussler,,  43.420890, -80.559197,,,0,,2,
77,77,7037,7037,Highland / Trussler,,  43.421323, -80.558585,,,0,,2,
77,77,7041,7041,Kitchener Gurdwara,,  43.417574, -80.580519,,,0,,2,
77,77,7000,7000,Snyders / Notre Dame,,  43.413413, -80.606219,,,0,,1,
77,77,7038,7038,560 Snyders Rd. E.,,  43.407234, -80.646283,,,0,,2,
77,77,5036,5036,Stiefelmeyer / Sandhills (Temporary Stop),,  43.405932, -80.650369,,,0,,2,
77,77,5037,5037,Schneller / Forler (Temporary Stop),,  43.403586, -80.655597,,,0,,2,
77,77,5038,5038,Louisa / Brewery (Temporary Stop),,  43.401715, -80.662896,,,0,,2,
77,77,7006,7006,Snyders / Mill,,  43.403461, -80.671388,,,0,,1,
77,77,7009,7009,Waterloo St. / Christner,,  43.396599, -80.705162,,,0,,2,
77,77,7011,7011,Waterloo St. / Forrest,,  43.387636, -80.711351,,,0,,2,
77,77,7016,7016,Waterloo St. / Wilmot Family Resource Centre,,  43.381441, -80.714774,,,0,,2,
77,77,7018,7018,Waterloo St. / Huron,,  43.377650, -80.713871,,,0,,2,
77,77,7020,7020,Huron / Union,,  43.378170, -80.711626,,,0,,1,
77,77,7022,7022,Peel / Boullee,,  43.376556, -80.707800,,,0,,2,
77,77,7024,7024,Peel / Bleams,,  43.373598, -80.704712,,,0,,2,
8,8,2621,2621,King / Fairway,,  43.428916, -80.433220,,,0,,1,
8,8,2622,2622,King / Morgan,,  43.429520, -80.435179,,,0,,1,
8,8,2623,2623,Weber / Highway 8,,  43.430619, -80.437220,,,0,,1,
8,8,1870,1870,Weber / Kinzie,,  43.432485, -80.439315,,,0,,1,
8,8,1871,1871,Weber / Fergus,,  43.433678, -80.442195,,,0,,1,
8,8,1872,1872,Weber / Arlington,,  43.433654, -80.444568,,,0,,1,
8,8,1873,1873,Weber / Franklin,,  43.434514, -80.447513,,,0,,1,
8,8,1874,1874,Weber / Euler,,  43.435612, -80.450988,,,0,,1,
8,8,1875,1875,Weber / Wilfred,,  43.436288, -80.453057,,,0,,1,
8,8,1876,1876,Weber / Ross,,  43.437133, -80.454743,,,0,,1,
8,8,3715,3715,Weber / Eastwood Collegiate Institute,,  43.439281, -80.461310,,,0,place_ECI,2,
8,8,2615,2615,Weber / Jackson,,  43.440108, -80.462749,,,0,,2,
8,8,2616,2616,Weber / Sheldon,,  43.442261, -80.465141,,,0,,2,
8,8,2563,2563,Weber / East,,  43.444612, -80.468016,,,0,,1,
8,8,2636,2636,Weber / Borden,,  43.445609, -80.470708,,,0,,1,
8,8,2649,2649,Weber / Stirling,,  43.446568, -80.475375,,,0,,1,
8,8,2651,2651,Weber / Cameron,,  43.447959, -80.478436,,,0,,1,
8,8,2653,2653,Weber / Cedar,,  43.449296, -80.481403,,,0,,1,
8,8,2408,2408,Weber / Scott,,  43.450606, -80.484272,,,0,,1,
8,8,2462,2462,Weber / Wellington,,  43.456975, -80.495046,,,0,,1,
8,8,2463,2463,Weber / Wilhelm,,  43.458903, -80.496775,,,0,,1,
8,8,2464,2464,Weber / Guelph,,  43.461271, -80.499471,,,0,,1,
8,8,2465,2465,Weber / Raitar,,  43.462149, -80.500442,,,0,,1,
8,8,2466,2466,Weber / Roger,,  43.464000, -80.502974,,,0,,1,
8,8,2537,2537,Weber / Union,,  43.465525, -80.505533,,,0,,2,
8,8,2661,2661,Weber / Bristol,,  43.466437, -80.507119,,,0,,1,
8,8,2663,2663,Weber / Allen,,  43.467888, -80.509543,,,0,,1,
8,8,2664,2664,Weber / Royal,,  43.469193, -80.511449,,,0,,2,
8,8,2665,2665,Weber / Lincoln,,  43.471102, -80.513510,,,0,,1,
8,8,2835,2835,Weber / Lincoln,,  43.471148, -80.513906,,,0,,1,
8,8,3606,3606,Weber / Erb,,  43.468625, -80.511157,,,0,,1,
8,8,2836,2836,Weber / Allen,,  43.467681, -80.509582,,,0,,1,
8,8,2534,2534,Weber / Union,,  43.465393, -80.505736,,,0,,1,
8,8,2494,2494,Weber / Roger,,  43.463901, -80.503154,,,0,,1,
8,8,2495,2495,Weber / Raitar,,  43.462548, -80.501094,,,0,,1,
8,8,2496,2496,Weber / Guelph,,  43.461472, -80.499916,,,0,,1,
8,8,2498,2498,Weber / Wilhelm,,  43.459043, -80.497421,,,0,,1,
8,8,2499,2499,Weber / Wellington,,  43.457219, -80.495303,,,0,,1,
8,8,2843,2843,Weber / Cedar,,  43.449080, -80.481294,,,0,,1,
8,8,2844,2844,Weber / Madison,,  43.448525, -80.480063,,,0,,1,
8,8,2845,2845,Weber / Fairview,,  43.446969, -80.476529,,,0,,1,
8,8,2847,2847,Weber / Borden,,  43.445539, -80.470943,,,0,,1,
8,8,2566,2566,Weber / Ottawa,,  43.444191, -80.467544,,,0,,1,
8,8,2617,2617,Weber / Sheldon,,  43.442124, -80.465223,,,0,,2,
8,8,2618,2618,Weber / Jackson,,  43.439909, -80.462811,,,0,,2,
8,8,3576,3576,Weber / Eastwood Collegiate Institute,,  43.438926, -80.460695,,,0,place_ECI,2,
8,8,2610,2610,Weber / Wilfred,,  43.436399, -80.453625,,,0,,1,
8,8,2611,2611,Weber / Dellroy,,  43.435585, -80.451149,,,0,,1,
8,8,3642,3642,Weber / Broadview,,  43.435029, -80.449733,,,0,,1,
8,8,2612,2612,Weber / Franklin,,  43.434316, -80.447404,,,0,,1,
8,8,2613,2613,Weber / Arlington,,  43.433354, -80.444076,,,0,,1,
8,8,2614,2614,Weber / Fergus,,  43.433323, -80.441396,,,0,,1,
8,8,2861,2861,Weber / Kinzie,,  43.431924, -80.438925,,,0,,1,
8,8,2862,2862,King / Kingsbury,,  43.429266, -80.434885,,,0,,1,
9,9,1093,1093,Columbia / Phillip,,  43.476824, -80.540815,,,0,,1,
9,9,1094,1094,Columbia / U.W. - Optometry,,  43.475524, -80.544386,,,0,,1,
9,9,4074,4074,Hagey / University Of Waterloo,,  43.475124, -80.546440,,,0,,1,
9,9,3865,3865,Hagey / Frank Tompa,,  43.477175, -80.547820,,,0,,2,
9,9,3630,3630,Hagey / Wes Graham,,  43.478973, -80.549034,,,0,,1,
9,9,3866,3866,Research & Technology Station,,  43.481994, -80.545863,,https://www.grt.ca/en/schedules-maps/platform-layouts-ION-connections.aspx,0,,1,
9,9,3867,3867,Parkside / Bearinger,,  43.485868, -80.546749,,,0,,1,
9,9,3626,3626,Parkside / Glenelm,,  43.488892, -80.545516,,,0,,1,
9,9,1181,1181,Cedarbrae / Mount Anne,,  43.490037, -80.546107,,,0,,2,
9,9,1182,1182,Cedarbrae / Sprucehill,,  43.489827, -80.547741,,,0,,2,
9,9,1183,1183,Cedarbrae / Path To Heasley Park,,  43.488018, -80.550253,,,0,,2,
9,9,1184,1184,Cedarbrae / Glen Forrest,,  43.485683, -80.551717,,,0,,1,
9,9,1185,1185,Glen Forrest / Brookhaven,,  43.487048, -80.555430,,,0,,2,
9,9,1186,1186,Toll Gate / Glen Forrest,,  43.487305, -80.556714,,,0,,1,
9,9,1187,1187,Toll Gate / Dogwood,,  43.486162, -80.559084,,,0,,1,
9,9,1188,1188,Toll Gate / Highpoint,,  43.485111, -80.559673,,,0,,1,
9,9,1190,1190,Highpoint / Rolling Hills,,  43.489148, -80.562995,,,0,,2,
9,9,1191,1191,Highpoint / Northfield,,  43.491098, -80.564267,,,0,,2,
9,9,1193,1193,Northlake / Highpoint,,  43.493627, -80.563965,,,0,,1,
9,9,1194,1194,Northlake / Green Meadow,,  43.494718, -80.559541,,,0,,2,
9,9,1195,1195,Northlake / Skylark,,  43.494517, -80.556661,,,0,,2,
9,9,1196,1196,Northfield / Skylark,,  43.493533, -80.555938,,,0,,1,
9,9,1197,1197,Northfield / Northgate,,  43.494361, -80.553558,,,0,,1,
9,9,1198,1198,Northfield / Weber (West Side),,  43.495652, -80.549714,,,0,,1,
9,9,1257,1257,Northfield Station,,  43.497653, -80.544044,,https://www.grt.ca/en/schedules-maps/platform-layouts-ION-connections.aspx,0,place_NORT,1,
9,9,1201,1201,Northfield / Conestogo,,  43.500197, -80.536998,,,0,,1,
9,9,1202,1202,Northfield / King,,  43.501401, -80.533615,,,0,,1,
9,9,1128,1128,Conestoga Station,,  43.498080, -80.528842,,https://www.grt.ca/en/schedules-maps/platform-layouts-ION-connections.aspx,0,place_CML,1,
9,9,1131,1131,Northfield / King,,  43.501582, -80.534054,,,0,,1,
9,9,1132,1132,Northfield / Colby,,  43.500390, -80.537434,,,0,,1,
9,9,1136,1136,Northfield / Weber,,  43.495593, -80.550716,,,0,,1,
9,9,1137,1137,Northfield / Northgate,,  43.494488, -80.553767,,,0,,1,
9,9,1138,1138,Northfield / Skylark,,  43.493633, -80.556185,,,0,,1,
9,9,1139,1139,Northlake / Black Oak,,  43.494807, -80.557141,,,0,,2,
9,9,1140,1140,Northlake / Green Meadow,,  43.494835, -80.559553,,,0,,1,
9,9,1141,1141,Northlake / Pine Island,,  43.493964, -80.562528,,,0,,2,
9,9,1142,1142,Highpoint / Cornerbrook,,  43.493252, -80.564759,,,0,,2,
9,9,1143,1143,Highpoint / Wintergreen,,  43.491198, -80.564526,,,0,,2,
9,9,1144,1144,Highpoint / Rolling Hills,,  43.488438, -80.563322,,,0,,2,
9,9,1145,1145,Highpoint / Dogwood,,  43.486826, -80.563321,,,0,,1,
9,9,1146,1146,Highpoint / Toll Gate,,  43.484950, -80.559996,,,0,,2,
9,9,1147,1147,Toll Gate / Glen Forrest,,  43.487197, -80.556677,,,0,,1,
9,9,1148,1148,Glen Forrest / Teakwood,,  43.486149, -80.553581,,,0,,2,
9,9,1149,1149,Cedarbrae / Glen Forrest,,  43.485673, -80.551569,,,0,,1,
9,9,1150,1150,Cedarbrae / Path To Heasley Park,,  43.487955, -80.550093,,,0,,1,
9,9,1152,1152,Cedarbrae / Sprucehill,,  43.489621, -80.548064,,,0,,2,
9,9,3627,3627,Parkside / Cedarbrae,,  43.489261, -80.545631,,,0,,1,
9,9,3868,3868,Parkside / Bearinger,,  43.485805, -80.546995,,,0,,1,
9,9,3869,3869,Research & Technology Station,,  43.481743, -80.546104,,https://www.grt.ca/en/schedules-maps/platform-layouts-ION-connections.aspx,0,,1,
9,9,3629,3629,Hagey / Wes Graham,,  43.479254, -80.549601,,,0,,1,
9,9,3870,3870,Hagey / Frank Tompa,,  43.477524, -80.548409,,,0,,2,
9,9,3872,3872,Hagey / U.W. - Columbia Ice Field,,  43.475581, -80.547130,,,0,,1,
9,9,2520,2520,Columbia / U.W. - Optometry,,  43.475440, -80.544123,,,0,,1,
9801,9801,1343,1343,Can-Amera / Franklin,,  43.393573, -80.304330,,,0,,2,
9801,9801,4300,4300,Avenue / Gail (School Special Stop),,  43.378345, -80.311710,,,0,,2,